Hotel_Address,Hotel_Name,lat,lng
 s Gravesandestraat 55 Oost 1092 AA Amsterdam Netherlands,Hotel Arena,52.36057589999999,4.9159682999999985
1 15 Templeton Place Earl s Court Kensington and Chelsea London SW5 9NB United Kingdom,K K Hotel George,51.49188779999999,-0.1949706
1 2 Serjeant s Inn Fleet Street City of London London EC4Y 1LL United Kingdom,Apex Temple Court Hotel,51.5137335,-0.1087512
1 3 Queens Garden Westminster Borough London W2 3BA United Kingdom,The Park Grand London Paddington,51.5142184,-0.1809032
1 3 Rue d Argentine 16th arr 75116 Paris France,Monhotel Lounge SPA,48.87434810000001,2.2897334
1 5 Passage Ruelle 18th arr 75018 Paris France,Kube Hotel Ice Bar,48.88657,2.3588332000000003
1 8 Russell Square Camden London WC1B 5BE United Kingdom,The Principal London,51.5226217,-0.1251602
1 Addington Street Lambeth London SE1 7RY United Kingdom,Park Plaza County Hall London,51.5014001,-0.1160092
1 Aldwych Westminster Borough London WC2B 4BZ United Kingdom,One Aldwych,51.5117832,-0.1194172
1 Avenue Carnot 17th arr 75017 Paris France,Splendid Etoile,48.874707,2.2936761000000003
1 Bis Rue De Vaugirard 6th arr 75006 Paris France,Hotel Trianon Rive Gauche,48.8487675,2.3410376
1 Hamilton Place Park Lane Westminster Borough London W1J 7QY United Kingdom,InterContinental London Park Lane,51.50386320000001,-0.1504132
1 Impasse Marteau 18th arr 75018 Paris France,Novotel Suites Paris Nord 18 me,48.9015941,2.3597783
1 Inverness Terrace Westminster Borough London W2 3JP United Kingdom,Grand Royale London Hyde Park,51.5109945,-0.18634170000000005
1 Kensington Court Kensington and Chelsea London W8 5DL United Kingdom,Milestone Hotel Kensington,51.5020425,-0.1866541
1 Kings Cross Road Islington London WC1X 9HX United Kingdom,Crowne Plaza London Kings Cross,51.5263854,-0.1136042
1 Place De La Sorbonne 5th arr 75005 Paris France,Select Hotel,48.84830529999999,2.3425596
1 Place Vend me 1st arr 75001 Paris France,H tel De Vend me,48.8668564,2.3286339
1 Rue De Libourne 12th arr 75012 Paris France,Pullman Paris Centre Bercy,48.8315204,2.3870797
1 Rue Du G n ral Blaise 11th arr 75011 Paris France,Gardette Park Hotel,48.8610265,2.3788974
1 rue Geoffroy Marie 9th arr 75009 Paris France,Hotel Panache,48.87325429999999,2.343239
1 Rue Sainte Opportune 1st arr 75001 Paris France,H tel des Ducs D Anjou,48.8598229,2.347111
1 Rue Scribe 9th arr 75009 Paris France,Hotel Scribe Paris Opera by Sofitel,48.8704175,2.3296832000000003
1 Shortlands Hammersmith and Fulham London W6 8DR United Kingdom,Novotel London West,51.4919588,-0.2200956
1 Suffolk Place Westminster Borough London SW1Y 4HX United Kingdom,Haymarket Hotel,51.5084595,-0.1311382
1 Waterview Drive Greenwich London SE10 0TW United Kingdom,Intercontinental London The O2,51.5024348,-0.0002497
10 12 rue Cognacq Jay 7th arr 75007 Paris France,H tel Juliana Paris,48.8619373,2.3040298
10 12 rue de Charonne 11th arr 75011 Paris France,Hotel L Antoine,48.85242150000001,2.3743832
10 avenue Carnot 17th arr 75017 Paris France,Belfast,48.8756435,2.2938788
10 Avenue D I na 16th arr 75016 Paris France,Shangri La Hotel Paris,48.8637135,2.2934759
10 Avenue Emile Zola 15th arr 75015 Paris France,Mercure Paris Tour Eiffel Pont Mirabeau,48.8460269,2.2788281
10 Beaufort Gardens Kensington and Chelsea London SW3 1PT United Kingdom,Knightsbridge Hotel,51.4980052,-0.1643238
10 Berners Street Westminster Borough London W1T 3NP United Kingdom,The London EDITION,51.5167472,-0.135965
10 Bina Gardens South Kensington Kensington and Chelsea London SW5 0LA United Kingdom,The Cranley Hotel,51.4916378,-0.1832833
10 Bis rue du D barcad re 17th arr 75017 Paris France,Hotel Le 10 BIS,48.8780363,2.2864907000000003
10 Carlisle Street Westminster Borough London W1D 3BR United Kingdom,The Nadler Soho,51.5147387,-0.1341108
10 Godliman Street City of London London EC4V 5AJ United Kingdom,Grange St Paul s Hotel,51.5127625,-0.0997157
10 Harrington Road Kensington and Chelsea London SW7 3ER United Kingdom,The Ampersand Hotel,51.49430770000001,-0.1755579
10 Monmouth Street Camden London WC2H 9HB United Kingdom,Covent Garden Hotel,51.51459860000001,-0.1270336
10 Palace Place Westminster Borough London SW1E 5BW United Kingdom,The Nadler Victoria,51.4990259,-0.1427453
10 Pepys Street City of London London EC3N 2NR United Kingdom,Novotel London Tower Bridge,51.51065379999999,-0.07736760000000001
10 Place De La R publique 11th arr 75011 Paris France,Crowne Plaza Paris R publique,48.8673199,2.3656296
10 Place De Mexico 16th arr 75016 Paris France,Le Metropolitan a Tribute Portfolio Hotel,48.8656973,2.2829776
10 rue Chateaubriand 8th arr 75008 Paris France,Atala Champs Elys es,48.8735418,2.302442
10 rue d Ormesson 4th arr 75004 Paris France,H tel de Jos phine BONAPARTE,48.8555319,2.3621212000000003
10 rue de Bruxelles 9th arr 75009 Paris France,Maison Souquet,48.88366,2.3313845
10 Rue de la Tour d Auvergne 9th arr 75009 Paris France,Hotel Tour d Auvergne Opera,48.8789432,2.3448623
10 rue de Vaugirard 6th arr 75006 Paris France,Le Senat,48.8491427,2.3397118
10 Rue Gabriel Laumain 10th arr 75010 Paris France,Windsor Opera,48.8734851,2.3485111
10 rue Gager Gabillot 15th arr 75015 Paris France,Holiday Inn Paris Montparnasse Pasteur,48.8376887,2.3063102000000004
10 Rue Kepler 16th arr 75016 Paris France,H tel Keppler,48.8699103,2.2973386
10 rue Lamartine 9th arr 75009 Paris France,Les Plumes Hotel,48.8766269,2.3432886
10 rue Saint Hyacinthe 1st arr 75001 Paris France,Hotel des Tuileries Relais du Silence,48.8661705,2.331561
10 rue Saint Philippe du Roule 8th arr 75008 Paris France,Bradford Elys es Astotel,48.8729676,2.3081178
10 Wardour Street Leicester Square Westminster Borough London W1D 6QF United Kingdom,W London Leicester Square,51.510843,-0.1314287
10 West Temple Sheen London SW14 7RT United Kingdom,The Victoria,51.4611219,-0.2756216
100 110 Euston Road Camden London NW1 2AJ United Kingdom,Pullman London St Pancras,51.5286766,-0.12834890000000002
100 Cromwell Road Kensington and Chelsea London SW7 4ER United Kingdom,Crowne Plaza London Kensington,51.495179,-0.183827
100 Queen s Gate Kensington and Chelsea London SW7 5AG United Kingdom,Doubletree by Hilton London Kensington,51.4925138,-0.17879170000000005
100 Shoreditch High Street Hackney London E1 6JQ United Kingdom,Ace Hotel London Shoreditch,51.5254162,-0.07728489999999999
100 Vauxhall Walk Lambeth London SE11 5AL United Kingdom,Staybridge Suites London Vauxhall,51.4891226,-0.1205639
101 Buckingham Palace Road Westminster Borough London SW1W 0SJ United Kingdom,The Grosvenor,51.4956657,-0.1452793
101 Knightsbridge Westminster Borough London SW1X 7RN United Kingdom,The Park Tower Knightsbridge a Luxury Collection Hotel,51.5014191,-0.16258050000000002
102 Avenue de Villiers 17th arr 75017 Paris France,Amp re,48.8848583,2.2997023
102 Avenue Victor Hugo 16th arr 75016 Paris France,Melia Paris Champs Elys es,48.86889620000001,2.2827459
102 Bd De Grenelle 15th arr 75015 Paris France,Le Parisis Paris Tour Eiffel,48.8494851,2.2955063
104 Bayswater Rd Westminster Borough London W2 3HL United Kingdom,Thistle Kensington Gardens,51.51084390000001,-0.1839074
108 Baker Street Westminster Borough London W1U 6LJ United Kingdom,Park Plaza Sherlock Holmes London,51.5209191,-0.1566567
108 Rue Saint Lazare 8th arr 75008 Paris France,Hilton Paris Opera,48.8756604,2.3252075
109 113 Queen s Gate Kensington and Chelsea London SW7 5LR United Kingdom,The Kensington Hotel,51.4925478,-0.1780611
10a Chestnut Plaza Westfield Stratford City Olympic Park Newham London E20 1GL United Kingdom,Holiday Inn London Stratford City,51.5426054,-0.0072708
10b Chestnut Plaza Westfield Stratford City Olympic Park Newham London E20 1GL United Kingdom,Staybridge Suites London Stratford,51.54263510000001,-0.007327199999999998
11 12 Poplar Mews Shepherd s Bush Hammersmith and Fulham London W12 7JS United Kingdom,Shepherd s Bush Boutique Hotel,51.5054544,-0.2262216
11 13 Bayley Street Bedford Square Camden London WC1B 3HD United Kingdom,My Bloomsbury,51.5188555,-0.1319172
11 15 Rue De Lyon 12th arr 75012 Paris France,Holiday Inn Paris Gare de Lyon Bastille,48.8468064,2.3714789
11 Bis Rue Jules Chaplain 6th arr 75006 Paris France,H tel Chaplain Paris Rive Gauche,48.8427564,2.3305636
11 Bis rue Mazagran 10th arr 75010 Paris France,H tel Regina Op ra Grands Boulevards,48.8708508,2.3515882
11 Cadogan Gardens Sloane Square Kensington and Chelsea London SW3 2RJ United Kingdom,11 Cadogan Gardens,51.4936161,-0.15923470000000006
11 Knightsbridge Westminster Borough London SW1X 7LY United Kingdom,The Wellesley Knightsbridge a Luxury Collection Hotel London,51.502485,-0.15392650000000002
11 Rue d Astorg 8th arr 75008 Paris France,Hotel Astor Saint Honor ,48.87283239999999,2.3193886000000004
11 Rue de l Arcade 8th arr 75008 Paris France,Op ra Marigny,48.871723,2.3235377
11 rue de Tr vise 9th arr 75009 Paris France,H tel Diva Opera,48.8732706,2.3450746
11 rue du 8 Mai 1945 10th arr 75010 Paris France,Le Marcel,48.8761376,2.3572681
11 Rue Du Temple 4th arr 75004 Paris France,H tel Duo,48.8581186,2.3529369
11 rue Paul Baudry 8th arr 75008 Paris France,H tel Le Marianne,48.8725794,2.3075779
11 Thurloe Place Knightsbridge Kensington and Chelsea London SW7 2RS United Kingdom,The Rembrandt,51.4959227,-0.17029170000000002
110 rue Blomet 15th arr 75015 Paris France,Hotel Eden,48.8405612,2.2991035
111 avenue de la Bourdonnais 7th arr 75007 Paris France,H tel de la Bourdonnais,48.8550466,2.304583
111 Cromwell Road Kensington and Chelsea London SW7 4DP United Kingdom,Ashburn Hotel,51.49455220000001,-0.1861213
111 Westminster Bridge Road Lambeth London SE1 7JD United Kingdom,Marlin Waterloo,51.4990953,-0.1132136
112 boulevard de S bastopol 3rd arr 75003 Paris France,Best Western Premier Marais Grands Boulevards,48.8687425,2.3541761
113 Lambeth Rd Lambeth London SE1 7LS United Kingdom,Novotel London Waterloo,51.4948465,-0.1187481
116 Piccadilly Westminster Borough London W1J 7BJ United Kingdom,The Athenaeum,51.504716,-0.1475618
117 129 Cromwell Road Kensington and Chelsea London SW7 4DS United Kingdom,Park International Hotel,51.4945144,-0.1866172
117 Poplar High Street Tower Hamlets London E14 0AE United Kingdom,Lansbury Heritage Hotel,51.5090985,-0.015730200000000003
117 Rue Lauriston 16th arr 75116 Paris France,Le Dokhan s a Tribute Portfolio Hotel,48.8663359,2.2867935
11bis Rue Godot de Mauroy 9th arr 75009 Paris France,Le Relais Madeleine,48.870961,2.3267678
12 14 Rue Joseph De Maistre 18th arr 75018 Paris France,Terrass H tel Montmartre by MH,48.8865626,2.3329648
12 Boulevard Haussmann 9th arr 75009 Paris France,Millennium Hotel Paris Opera,48.8724588,2.3378004
12 boulevard Malesherbes 8th arr 75008 Paris France,Waldorf Madeleine,48.8715828,2.3224853
12 Folgate Street City of London London E1 6BX United Kingdom,Batty Langley s,51.5208575,-0.0779503
12 Lancaster Gate Lancaster Gate Westminster Borough London W2 3LG United Kingdom,Best Western Mornington Hotel Hyde Park,51.51199329999999,-0.17827939999999998
12 Osborn Street Aldgate East Tower Hamlets London E1 6TE United Kingdom,Arbor City,51.5166755,-0.0697897
12 rue de la Montagne Sainte Genevi ve 5th arr 75005 Paris France,Hotel La Lanterne,48.8489839,2.348383
12 Rue de Louvois 2nd arr 75002 Paris France,H tel Square Louvois,48.8684165,2.336869
12 rue de Marignan 8th arr 75008 Paris France,Hotel Marignan Champs Elys es,48.8685093,2.3067895
12 rue de Parme 9th arr 75009 Paris France,Le Grey Hotel,48.881407,2.3274204
12 rue des Saussaies 8th arr 75008 Paris France,Le Pavillon des Lettres,48.8713699,2.3181191
12 Rue Jean Goujon 8th arr 75008 Paris France,H tel San R gis,48.86657879999999,2.3084447
12 rue Saint Didier 16th arr 75016 Paris France,Garden Elys e,48.8663444,2.2881979
12 rue Saint Roch 1st arr 75001 Paris France,Hotel Louvre Montana,48.8644627,2.3318473
12 Upper Woburn Place Camden London WC1H 0HX United Kingdom,Ambassadors Bloomsbury,51.5266618,-0.12965710000000005
123 boulevard S bastopol 2nd arr 75002 Paris France,Le 123 S bastopol Astotel,48.8675886,2.3531018
123 Rue Du Faubourg Saint Honor 8th arr 75008 Paris France,Le 123 Elysees Astotel,48.8730823,2.309659
124 Clerkenwell Rd Camden London EC1R 5DJ United Kingdom,The Bryson Hotel,51.5220869,-0.1082443
128 avenue de Wagram 17th arr 75017 Paris France,Best Western Mercedes Arc de Triomphe,48.8848292,2.3035189
128 King Henry s Road Camden London NW3 3ST United Kingdom,London Marriott Hotel Regents Park,51.5421476,-0.1703073
129 Bayswater Road London W2 4RJ United Kingdom,Hilton London Hyde Park,51.51046,-0.1875844
13 15 Gower Street Camden London WC1E 6HE United Kingdom,Staunton Hotel B B,51.520378,-0.1303414
13 Boulevard Du Temple 3rd arr 75003 Paris France,1K Hotel,48.8639318,2.3658744
13 Rue De La Paix 2nd arr 75002 Paris France,H tel Westminster,48.8693409,2.3310263
13 rue des Beaux Arts 6th arr 75006 Paris France,L H tel,48.856227200000006,2.3351758
13 Rue Fran ois Ory 92120 Paris France,Mercure Paris Porte d Orleans,48.8178079,2.3293636
13 rue Geoffroy Marie 9th arr 75009 Paris France,Maxim Op ra,48.8738557,2.3444232000000005
13 Rue Jules Cesar 12th arr 75012 Paris France,Le Marceau Bastille,48.8490691,2.3697484
13 rue Saint Sulpice 6th arr 75006 Paris France,Hotel Odeon Saint Germain,48.8513515,2.3375084
130 134 Southampton Row Camden London WC1B 5AF United Kingdom,Mercure London Bloomsbury Hotel,51.5210085,-0.1230966
130 135 Minories City of London London EC3N 1NU United Kingdom,The Chamberlain,51.51224570000001,-0.0757326
130 Tottenham Court Road Camden London W1T 5AY United Kingdom,Radisson Blu Edwardian Grafton,51.5241386,-0.1380807
132 Boulevard Haussmann 8th arr 75008 Paris France,La Villa Haussmann,48.8753446,2.3167161
134 George Street Westminster Borough London W1H 5DN United Kingdom,London Marriott Hotel Marble Arch,51.5163841,-0.16357639999999998
14 15 Langham Place Westminster Borough London W1B 2QS United Kingdom,Saint Georges Hotel,51.517839,-0.1424476
14 16 Craven Hill Lancaster Gate Westminster Borough London W2 3DU United Kingdom,Park Grand London Lancaster Gate,51.51320689999999,-0.1807816
14 Henrietta Street Westminster Borough London WC2E 8QH United Kingdom,The Henrietta Hotel,51.5109079,-0.1238221
14 Rue Beaujon 8th arr 75008 Paris France,Sofitel Paris Arc De Triomphe,48.8751845,2.3013214
14 Rue de la Sorbonne 5th arr 75005 Paris France,Hotel Mercure La Sorbonne Saint Germain des Pr s,48.8493499,2.3430569
14 rue de la Tremoille 8th arr 75008 Paris France,La Tremoille Paris,48.8668589,2.3028215
14 Rue du Chevalier de Saint George 1st arr 75001 Paris France,Hotel Op ra Richepanse,48.8686931,2.325211
14 Rue St Simon 7th arr 75007 Paris France,H tel Duc De St Simon,48.8560685,2.3236846
14 Rue Stanislas 6th arr 75006 Paris France,Hotel Le Six,48.8438352,2.3280708
140 Gloucester Road Kensington and Chelsea London SW7 4QH United Kingdom,The Bailey s Hotel London,51.4938733,-0.1824963
140 Park Lane Westminster Borough London W1K 7AA United Kingdom,London Marriott Hotel Park Lane,51.5131428,-0.1576714
141 rue St Honor 1st arr 75001 Paris France,Best Western Premier Louvre Saint Honor ,48.861711,2.3406740000000004
142 Minories City of London London EC3N 1LS United Kingdom,Hotel Indigo London Tower Hill,51.5128032,-0.07586
142 To 144 Warwick Way Victoria Westminster Borough London SW1V 4JE United Kingdom,Windermere Hotel,51.4903724,-0.1459218
143 Avenue De Malakoff 16th arr 75016 Paris France,La Villa Maillot,48.875551,2.2835191000000004
143 Boulevard Saint Germain 6th arr 75006 Paris France,H tel Madison by MH,48.8531641,2.3344097
144 Praed St Paddington Westminster Borough London W2 1HU United Kingdom,Mercure London Paddington Hotel,51.51611389999999,-0.1749521
146 Praed Street Westminster Borough London W2 1EE United Kingdom,Hilton London Paddington,51.515632,-0.17573699999999998
147 Cromwell Road Kensington and Chelsea London SW5 0TH United Kingdom,London Marriott Hotel Kensington,51.4944849,-0.1884174
15 16 Prince Of Wales Terrace Kensington and Chelsea London W8 5PQ United Kingdom,Kensington House Hotel,51.5012329,-0.1859937
15 17 Charlotte Street Hotel Westminster Borough London W1T 1RJ United Kingdom,Charlotte Street Hotel,51.5184158,-0.1348509
15 Beeston Place Westminster Borough London SW1W 0JW United Kingdom,The Goring,51.4975621,-0.145551
15 Boulevard Romain Rolland 14th arr 75014 Paris France,Novotel Paris 14 Porte d Orl ans,48.8196885,2.3263505
15 Cromwell Place Kensington and Chelsea London SW7 2LA United Kingdom,The Pelham Starhotels Collezione,51.4943935,-0.17501689999999998
15 Montague St Bloomsbury Camden London WC1B 5BJ United Kingdom,The Montague On The Gardens,51.520181,-0.1256957
15 Place Vend me 1st arr 75001 Paris France,Ritz Paris,48.8679466,2.3289593
15 Quai Saint Michel 5th arr 75005 Paris France,Hotel Les Rives de Notre Dame,48.8532269,2.3457159
15 Rue Boissy d Anglas 8th arr 75008 Paris France,Sofitel Paris Le Faubourg,48.868414,2.3213247000000004
15 Rue de Bassano 16th arr 75016 Paris France,Bassano,48.8690596,2.2971078
15 rue de Constantinople 8th arr 75008 Paris France,Best Western Premier Le Swann,48.8797331,2.3206003
15 Rue De La Grande Chaumi re 6th arr 75006 Paris France,H tel des Academies et des Arts,48.8420669,2.3304091
15 Rue Des Pyramides 1st arr 75001 Paris France,Hotel Lumen Paris Louvre,48.86525820000001,2.3329632
15 Rue Dupleix 15th arr 75015 Paris France,Le Marquis Eiffel,48.8516619,2.2979395
15 rue Edouard Manet 13th arr 75013 Paris France,COQ Hotel Paris,48.8328764,2.3572531000000003
15 Rue Jacob 6th arr 75006 Paris France,Mill sime H tel,48.8550236,2.3350786
15 Seymour Street Westminster Borough London W1H 7JW United Kingdom,The Leonard Hotel,51.5147071,-0.15782910000000006
150 Bayswater Road Kensington and Chelsea London W2 4RT United Kingdom,DoubleTree by Hilton London Hyde Park,51.5100362,-0.190657
150 Piccadilly Westminster Borough London W1J 9BR United Kingdom,The Ritz London,51.5069446,-0.1415776
151 157 City Road Shoreditch Islington London EC1V 1JS United Kingdom,M by Montcalm Shoreditch London Tech City,51.5278465,-0.0889473
151 bis Rue de Rennes 6th arr 75006 Paris France,Legend Saint Germain by Elegancia,48.8453774,2.3256427000000004
152 Cricklewood Broadway Cricklewood London NW2 3ED United Kingdom,Clayton Crown Hotel London,51.5561548,-0.2141824
153 Boulevard Saint Germain 6th arr 75006 Paris France,Au Manoir Saint Germain,48.853688,2.3322667
153 Hammersmith Road Hammersmith and Fulham London W14 0QL United Kingdom,St Paul s Hotel,51.493475200000006,-0.2153256
153 Rue De Vaugirard 15th arr 75015 Paris France,Best Western S vres Montparnasse,48.843707,2.3155631000000003
16 22 Great Russell Street Camden London WC1B 3NN United Kingdom,The Bloomsbury Hotel,51.5171671,-0.12905339999999998
16 Avenue de l Opera 1st arr 75001 Paris France,Nolinski Paris,48.8654874,2.3348924
16 avenue de Tourville 7th arr 75007 Paris France,Le Tourville Eiffel,48.85426810000001,2.3078116
16 boulevard Haussmann 9th arr 75009 Paris France,Paris Marriott Opera Ambassador Hotel,48.8728351,2.3362507000000003
16 London Street Paddington Westminster Borough London W2 1HL United Kingdom,Hotel Indigo London Paddington,51.5150534,-0.1739974
16 rue d Edimbourg 8th arr 75008 Paris France,Idol Hotel,48.8795369,2.3202966
16 rue de Berri 8th arr 75008 Paris France,H tel California Champs Elys es,48.8726335,2.3048084
16 rue de S ze 9th arr 75009 Paris France,Hotel de Seze,48.870574100000006,2.3264194
16 Sumner Place Kensington and Chelsea London SW7 3EG United Kingdom,Number Sixteen,51.4930905,-0.17550220000000002
160 Cromwell Road Kensington Kensington and Chelsea London SW5 0TL United Kingdom,Hotel Xenia Autograph Collection,51.4946905,-0.1910197
160 Rue La Fayette 10th arr 75010 Paris France,H tel Hor,48.8793427,2.3577745
163 Marsh Wall Docklands Tower Hamlets London E14 9SJ United Kingdom,Britannia International Hotel Canary Wharf,51.5019097,-0.0232208
165 rue de Rome 17th arr 75017 Paris France,Best Western Op ra Batignolles,48.8870573,2.3143297
166 Boulevard Berthier 17th arr 75017 Paris France,H tel de Banville,48.88646729999999,2.2948911
167 rue de Rome 17th arr 75017 Paris France,Villa Eugenie,48.8871283,2.314205
17 18 Upper Woburn Place Camden London WC1H 0HT United Kingdom,Hilton London Euston,51.5265189,-0.13036889999999998
17 19 Egerton Terrace Knightsbridge Kensington and Chelsea London SW3 2BX United Kingdom,Egerton House,51.4968406,-0.16754979999999994
17 25 Sloane Street Knightsbridge Kensington and Chelsea London SW1X 9NU United Kingdom,Millennium Hotel London Knightsbridge,51.4999683,-0.15999270000000002
17 Avenue Kl ber 16th arr 75016 Paris France,H tel Raphael,48.8713239,2.2937849
17 bis rue Am lie 7th arr 75007 Paris France,Le 7 Eiffel Hotel,48.8585193,2.3077243
17 Boulevard Saint Jacques 14th arr 75014 Paris France,Paris Marriott Rive Gauche Hotel,48.83159620000001,2.3399796000000004
17 Nottingham Place Westminster Borough London W1U 5LG United Kingdom,Hotel La Place,51.52152570000001,-0.1533039
17 Rue de Caumartin 9th arr 75009 Paris France,Hotel Le Pera,48.871309,2.3277079
17 rue de l Arcade 8th arr 75008 Paris France,H tel Bedford,48.8720593,2.3236802000000005
17 rue de Richelieu 1st arr 75001 Paris France,Drawing Hotel,48.8644382,2.3359148
17 Rue Du Cotentin 15th arr 75015 Paris France,Novotel Paris Centre Gare Montparnasse,48.838484,2.3150904
17 rue Duhesme 18th arr 75018 Paris France,D clic Hotel,48.8908018,2.3380204
17 rue g t le coeur 6th arr 75006 Paris France,Villa d Estr es,48.8535089,2.3425787
171 Knightsbridge Westminster Borough London SW7 1DW United Kingdom,Bulgari Hotel London,51.5015721,-0.1628511
173 185 Greenwich High Rd Greenwich London SE10 8JA United Kingdom,Novotel London Greenwich,51.4778583,-0.0137463
173 Gloucester Place Westminster Borough London NW1 6DX United Kingdom,Park Avenue Baker Street,51.52414520000001,-0.1609907
177 Boulevard Haussmann 8th arr 75008 Paris France,Hotel Plaza Elys es,48.8746128,2.3056956000000004
177 rue du faubourg Saint Honor 8th arr 75008 Paris France,Hotel Champs Elys es Friedland by Happyculture,48.8750848,2.3048372
18 21 Charterhouse Square Islington London EC1M 6AH United Kingdom,Malmaison London,51.520943,-0.1004581
18 30 Lexham Gardens Kensington and Chelsea London W8 5JE United Kingdom,The Park City Grand Plaza Kensington Hotel,51.4954976,-0.1893691
18 Albert Embankment Lambeth London SE1 7TJ United Kingdom,Park Plaza London Riverbank,51.4913737,-0.1214194
18 Avenue De Suffren Entr e au 22 rue Jean Rey 15th arr 75015 Paris France,Pullman Paris Tour Eiffel,48.8555664,2.2926243
18 Lodge Road Near Baker Street And Marylebone Westminster Borough London NW8 7JT United Kingdom,Danubius Hotel Regents Park,51.529257,-0.16835799999999998
18 rue Bachaumont 2nd arr 75002 Paris France,Hotel Bachaumont,48.8663208,2.3450399
18 rue Clement Marrot 8th arr 75008 Paris France,Franklin Roosevelt,48.8678432,2.3033075000000003
18 Rue d Antin 2nd arr 75002 Paris France,H tel Horset Op ra Best Western Premier Collection,48.8691686,2.3337818
18 rue de Constantinople 8th arr 75008 Paris France,Best Western Paris Gare Saint Lazare,48.8803752,2.319591
18 Rue du Cirque 8th arr 75008 Paris France,Splendide Royal Paris,48.87096270000001,2.3154141
181 Cromwell Road Kensington and Chelsea London SW5 0SF United Kingdom,The Rockwell,51.4948059,-0.1926525
181 Tooley Street Southwark London SE1 2JR United Kingdom,The LaLit London,51.5032524,-0.078179
185 Boulevard Brune 14th arr 75014 Paris France,Mercure Paris Alesia,48.8237487,2.324056
19 21 Gt Marlborough St Westminster Borough London W1F 7HL United Kingdom,Courthouse Hotel London,51.5143624,-0.1394483
19 21 Penywern Road Kensington and Chelsea London SW5 9TT United Kingdom,Best Western The Boltons Hotel London Kensington,51.4907493,-0.1934627
19 25 Granville Place Marble Arch Westminster Borough London W1H 6PA United Kingdom,Radisson Blu Edwardian Sussex,51.5144381,-0.15583370000000002
19 avenue Kleber 16th arr 75116 Paris France,Hotel The Peninsula Paris,48.8710605,2.2933537
19 Boulevard De La Tour Maubourg 7th arr 75007 Paris France,Le Narcisse Blanc Spa,48.8605125,2.3106533
19 Brent Street Brent Cross London NW4 2EU United Kingdom,The Pillar Hotel,51.583236,-0.216868
19 New Bridge Street City of London London EC4V 6DB United Kingdom,Crowne Plaza London The City,51.5122429,-0.1045036
19 place du Panth on 5th arr 75005 Paris France,H tel Les Dames du Panth on,48.845743,2.34493
19 Rue Copernic 16th arr 75016 Paris France,H tel Victor Hugo Paris Kl ber,48.8690198,2.2891278
19 Rue Cujas 5th arr 75005 Paris France,Grand Hotel Saint Michel,48.8478399,2.342254
19 Rue De Caumartin 9th arr 75009 Paris France,Hotel Maison Ath n e,48.8713421,2.3280723
19 Rue Des Pretres Saint Germain L Auxerrois 1st arr 75001 Paris France,Relais Du Louvre,48.8592264,2.340996
19 Rue du Commandant Ren Mouchotte 14th arr 75014 Paris France,Pullman Paris Montparnasse,48.8382943,2.3210421
19 Rue Du Pont Neuf 1st arr 75001 Paris France,Best Western Ducs de Bourgogne,48.8603483,2.3440535
19 Rue Tronchet 8th arr 75008 Paris France,Best Western Premier Op ra Opal,48.8722588,2.3257608
19 Rue Vernet 8th arr 75008 Paris France,Amarante Champs Elys es,48.8717649,2.2983855
190 Queen s Gate Kensington and Chelsea London SW7 5EX United Kingdom,The Gore Hotel Starhotels Collezione,51.5001979,-0.17953570000000002
199 206 High Holborn Camden London WC1V 7BD United Kingdom,The Hoxton Holborn,51.5172398,-0.1220324
1a Lexham Gardens Kensington and Chelsea London W8 5JJ United Kingdom,Mercure London Kensington Hotel,51.4950098,-0.1906195
2 24 Kensington High St Kensington and Chelsea London W8 4PT United Kingdom,Royal Garden Hotel,51.50270220000001,-0.1882164
2 4 Boundary Street Hackney London E2 7DD United Kingdom,Boundary Rooms Suites,51.5244224,-0.0764614
2 4bis Cit Rougemont 9th arr 75009 Paris France,H tel Ad le Jules,48.87210620000001,2.3451384
2 5 Montague Street Bloomsbury Camden London WC1B 5BU United Kingdom,Grange White Hall Hotel,51.5203469,-0.12608930000000002
2 8 Great Suffolk Street Southwark London SE1 0UG United Kingdom,Hilton London Bankside,51.5056956,-0.101525
2 8 Hanger Lane Ealing Common London W5 3HN United Kingdom,DoubleTree by Hilton London Ealing,51.511521,-0.290706
2 avenue la Porte Molitor 16th arr 75016 Paris France,Molitor Paris MGallery by Sofitel,48.8448902,2.2528330000000003
2 Bd Garibaldi 15th arr 75015 Paris France,First Hotel Paris Tour Eiffel,48.8475112,2.3022198
2 Bridge Place Victoria Westminster Borough London SW1V 1QA United Kingdom,DoubleTree by Hilton London Victoria,51.49398,-0.143372
2 Caxton Street Westminster Borough London SW1H 0QW United Kingdom,St Ermin s Hotel Autograph Collection,51.498905,-0.13390929999999998
2 Montagu Place Westminster Borough London W1H 2ER United Kingdom,Montagu Place Hotel,51.5191009,-0.1592
2 place des Pyramides 1st arr 75001 Paris France,H tel Regina,48.8637503,2.3320406000000005
2 place Louis Armand 12th arr 75012 Paris France,Mercure Paris Gare De Lyon TGV,48.8442949,2.3730938
2 Rue Boulard 14th arr 75014 Paris France,Villa Montparnasse,48.8349272,2.3295913
2 Rue d Artois 8th arr 75008 Paris France,H tel des Champs Elys es,48.8722884,2.3090359
2 rue de Gramont 2nd arr 75002 Paris France,Lyric H tel Paris,48.8690126,2.3368708
2 Rue De Parme 9th arr 75009 Paris France,Hotel Design Secret de Paris,48.8814056,2.3282568
2 rue des Guillemites 4th arr 75004 Paris France,Hotel Dupond Smith,48.857898,2.3571978
2 Rue du Colonel Pierre Avia 15th arr 75015 Paris France,Okko Hotels Paris Porte De Versailles,48.8327729,2.2787597
2 Rue Duperr 9th arr 75009 Paris France,La Villa Royale,48.8821595,2.3367444
2 Rue Edouard VII 9th arr 75009 Paris France,Hotel Indigo Paris Opera,48.8704371,2.329236
2 rue Geoffroy Marie 9th arr 75009 Paris France,Villa Opera Drouot,48.8732231,2.3436097
2 Rue Hector Malot 12th arr 75012 Paris France,Novotel Paris Gare De Lyon,48.8453785,2.3753036
2 Rue Racine 6th arr 75006 Paris France,H tel Belloy Saint Germain By Happyculture,48.8503901,2.3422527
2 Rue Saint Sulpice 6th arr 75006 Paris France,Hotel Louis 2,48.8516148,2.3381293
2 Rue Scribe 9th arr 75009 Paris France,InterContinental Paris Le Grand,48.8708391,2.3303651000000003
2 Spring Gardens Trafalgar Square Westminster Borough London SW1A 2TS United Kingdom,The Trafalgar Hilton,51.507374,-0.129135
2 Stanhope Row Park Lane Westminster Borough London W1J 7BS United Kingdom,Park Lane Mews Hotel,51.5059334,-0.1489418
2 Sylvester Path Hackney London E8 1EN United Kingdom,Old Ship Inn Hackney,51.5458476,-0.0554113
2 The Avenue Ealing London W13 8PH United Kingdom,The Drayton Court Hotel,51.5141842,-0.31929250000000003
2 Wallenberg Place Westminster Borough London W1H 7TN United Kingdom,The Montcalm Marble Arch,51.51505220000001,-0.15923900000000002
2 Warrington Crescent Westminster Borough London W9 1ER United Kingdom,The Colonnade,51.5243286,-0.1846623
2 Whitehall Court Westminster Borough London SW1A 2EJ United Kingdom,The Royal Horseguards,51.5054185,-0.1241499
20 28 Bolsover Street Westminster Borough London W1W 5NB United Kingdom,Grange Fitzrovia Hotel,51.521759,-0.1425381
20 bis rue de la Ga t 14th arr 75014 Paris France,H tel Le M,48.8397623,2.3235324
20 Chesham Place Kensington and Chelsea London SW1X 8HQ United Kingdom,The Hari London,51.4973203,-0.1562558
20 Lavington Street Southwark London SE1 0NZ United Kingdom,citizenM London Bankside,51.5051507,-0.1004724
20 Mercer Street Covent Garden Camden London WC2H 9HD United Kingdom,Radisson Blu Edwardian Mercer Street,51.5139275,-0.1271506
20 Nevern Square Kensington and Chelsea London SW5 9PD United Kingdom,Twenty Nevern Square Hotel,51.4915712,-0.1963192
20 Pembridge Gardens Kensington and Chelsea London W2 4DU United Kingdom,The Abbey Court Notting Hill,51.5101401,-0.1968951
20 rue Berthollet 5th arr 75005 Paris France,Seven Hotel,48.8389823,2.3455528
20 rue de l Ing nieur Robert Keller 15th arr 75015 Paris France,Platine Hotel Spa,48.8473459,2.2832408
20 rue du Sommerard 5th arr 75005 Paris France,Mercure Paris Notre Dame Saint Germain des Pr s,48.8503074,2.3450612
20 Rue Jean Rey 15th arr 75015 Paris France,Mercure Paris Centre Tour Eiffel,48.8548641,2.2923181
20 Rue La Fayette 9th arr 75009 Paris France,Banke H tel,48.8735736,2.3359650000000003
20 Upper Ground Southwark London SE1 9PD United Kingdom,Mondrian London,51.5084036,-0.1067988
20 Warwick Street Westminster Borough London W1B 5NF United Kingdom,Karma Sanctum Soho Hotel,51.5116049,-0.1383145
202 220 Cromwell Road Kensington and Chelsea London SW5 0SW United Kingdom,NH London Kensington,51.4948507,-0.1945544
202 rue de Rivoli 1st arr 75001 Paris France,Saint James Albany Paris Hotel Spa,48.8642689,2.3308179
207 Boulevard Raspail 14th arr 75014 Paris France,Mercure Paris Montparnasse Raspail,48.8412131,2.3302954
209 211 rue de Charenton 12th arr 75012 Paris France,Golden Tulip Bercy Gare de Lyon 209,48.8393229,2.3892274
21 Avenue De La Grande Arm e 16th arr 75016 Paris France,Montfleuri,48.8747153,2.2906388
21 Avonmore Road Kensington Hammersmith and Fulham London W14 8RP United Kingdom,Simply Rooms Suites,51.4944875,-0.2070605
21 Boulevard De Clichy 9th arr 75009 Paris France,Mercure Paris Pigalle Sacre Coeur,48.8823398,2.3364764
21 Gower Street Camden London WC1E 6HG United Kingdom,The Academy,51.5205441,-0.1308091
21 Piccadilly Westminster Borough London W1J 0BH United Kingdom,Le Meridien Piccadilly,51.5094835,-0.13625379999999998
21 rue de Dunkerque 10th arr 75010 Paris France,Mercure Paris Terminus Nord,48.8794843,2.3556545
21 rue F licien David 16th arr 75016 Paris France,H tel F licien by Elegancia,48.8493082,2.2743626
21 rue Lavoisier 8th arr 75008 Paris France,Le Lavoisier,48.8737702,2.3201063
21 rue Moli re 1st arr 75001 Paris France,H tel Moli re,48.86552929999999,2.3360102000000005
213 rue de la Croix Nivert 15th arr 75015 Paris France,Vice Versa,48.8363819,2.2897793
214 High Street Acton London London W3 9NX United Kingdom,The Kings Head Hotel,51.5079153,-0.2730145
214 rue du Faubourg Saint Honor 8th arr 75008 Paris France,H tel Etoile Saint Honor by Happyculture,48.8756508,2.3041568
214 rue Saint Jacques 5th arr 75005 Paris France,Hotel Le petit Paris,48.8452789,2.342295
216 Avenue Jean Jaures 19th arr 75019 Paris France,Mercure Paris 19 Philharmonie La Villette,48.8886969,2.3945403
218 220 rue du Faubourg St Honor 8th arr 75008 Paris France,Royal Garden Champs Elysees,48.87571550000001,2.3038781000000004
218 rue de Rivoli 1st arr 75001 Paris France,H tel Brighton Esprit de France,48.8649306,2.3290844
22 24 Rue Faidherbe 11th arr 75011 Paris France,H tel Paris Bastille Boutet MGallery by Sofitel,48.8519215,2.3839993
22 25 Finsbury Square City Islington London EC2A 1DX United Kingdom,Montcalm Royal London House City of London,51.5218066,-0.0856081
22 28 Broadway Westminster Borough London SW1H 0BH United Kingdom,Conrad London St James,51.4993927,-0.1329128
22 avenue de Villiers 17th arr 75017 Paris France,L Edmond H tel,48.8823111,2.3132374
22 Avenue du professeur lemierre 20th arr 75020 Paris France,Novotel Suites Paris Montreuil Vincennes,48.8554268,2.4152555
22 Hertsmere Road Tower Hamlets London E14 4ED United Kingdom,London Marriott Hotel West India Quay,51.5072713,-0.0211213
22 Park Lane Westminster Borough London W1K 1BE United Kingdom,London Hilton on Park Lane,51.5055513,-0.1501698
22 Portman Square Westminster Borough London W1H 7BG United Kingdom,Radisson Blu Portman Hotel London,51.5161911,-0.1579487
22 rue d Antin 2nd arr 75002 Paris France,H tel France d Antin Op ra,48.8692566,2.3339369
22 Rue Danielle Casanova 1st arr 75002 Paris France,Hotel Stendhal Place Vend me Paris MGallery by Sofitel,48.8681455,2.3313064
22 rue de Buci 6th arr 75006 Paris France,H tel De Buci by MH,48.8538752,2.3366123
22 Rue de La Parcheminerie 5th arr 75005 Paris France,Hotel Parc Saint Severin Esprit de France,48.8518584,2.3447798
22 Rue Tronchet 8th arr 75008 Paris France,Hotel Chavanel,48.8721692,2.3262681
22 Stanley Gardens Kensington and Chelsea London W11 2NG United Kingdom,The Portobello Hotel,51.512257,-0.2034244
221 Rue Saint Honore 1st arr 75001 Paris France,Royal Saint Honore,48.8658792,2.3298903
222 Marylebone Road Westminster Borough London NW1 6JQ United Kingdom,Landmark London,51.519016,-0.166267
225 Edgware Road Westminster Borough London W2 1JU United Kingdom,Hilton London Metropole,51.5195688,-0.170521
225 High Street Kensington Kensington and Chelsea London W8 6SA United Kingdom,Best Western Seraphine Kensington Olympia,51.4992791,-0.1973593
225 Ladbroke Grove Kensington and Chelsea London W10 6HQ United Kingdom,Portobello House,51.5199224,-0.2116636
228 Rue De Rivoli 1st arr 75001 Paris France,Le Meurice,48.8653685,2.328218
23 25 rue de Pont Neuf 1st arr 75001 Paris France,Maison Albar Hotel Paris C line,48.8606187,2.344401
23 Leinster Gardens Westminster Borough London W2 3AN United Kingdom,Henry VIII,51.51246550000001,-0.182274
23 Mecklenburgh Square Camden London WC1N 2AD United Kingdom,Goodenough Club,51.525535,-0.1180354
23 rue du Faubourg Montmartre 9th arr 75009 Paris France,Hotel Pulitzer Paris,48.87319960000001,2.3425446
23 Rue Vignon 8th arr 75008 Paris France,Hotel Vignon,48.8717146,2.3261812
230 A Mile End Road Tower Hamlets London E1 4LJ United Kingdom,London Suites,51.5215508,-0.046923800000000015
232 Boulevard Raspail 14th arr 75014 Paris France,H tel Aiglon Esprit de France,48.83966229999999,2.3300582000000003
234 Diputacio Eixample 08007 Barcelona Spain,Sansi Diputacio,41.3882234,2.1644551
239 Vauxhall Bridge Road Westminster Borough London SW1V 1EQ United Kingdom,Park Plaza Victoria London,51.4942539,-0.1414756
24 27 Bedford Place Bloomsbury Camden London WC1B 5JH United Kingdom,Grange Beauchamp Hotel,51.5203266,-0.1245891
24 Egerton Gardens Kensington and Chelsea London SW3 2DB United Kingdom,The Franklin Hotel Starhotels Collezione,51.4960283,-0.1686355
24 Ludgate Hill City of London London EC4M 7DR United Kingdom,Club Quarters Hotel St Paul s,51.51392979999999,-0.101126
24 rue Bassano 16th arr 75016 Paris France,Hotel Elys es Bassano,48.8689307,2.2974502999999995
24 rue Cadet 9th arr 75009 Paris France,Hotel Opera Cadet,48.875437100000006,2.3434586
24 Rue d Amsterdam 9th arr 75009 Paris France,Phileas Hotel,48.8768854,2.3270623
24 Rue De Miromesnil 8th arr 75008 Paris France,Holiday Inn Paris Elys es,48.8730437,2.3161144
24 rue de Ponthieu 8th arr 75008 Paris France,H tel Beauchamps,48.87096,2.3091617
25 avenue du General Leclerc 14th arr 75014 Paris France,Best Western Nouvel Orl ans Montparnasse,48.8309896,2.3297301
25 Avenue Montaigne 8th arr 75008 Paris France,Hotel Plaza Athenee Paris,48.86619320000001,2.3042141
25 Boulevard Auguste Blanqui 13th arr 75013 Paris France,Mercure Paris Place d Italie,48.830196,2.3529539
25 Courtfield Gardens Kensington and Chelsea London SW5 0PG United Kingdom,The Nadler Kensington,51.4931086,-0.190208
25 rue des Saints P res 6th arr 75006 Paris France,H tel Da Vinci Spa,48.8565778,2.3319767
25 Rue Theodore de Banville 17th arr 75017 Paris France,XO Hotel,48.8827492,2.2982782000000004
25 Rue Vernet 8th arr 75008 Paris France,H tel Vernet,48.871859,2.2978177000000004
251 rue Saint Honor 1st arr 75001 Paris France,Mandarin Oriental Paris,48.8671889,2.326927
252 High Holborn Holborn Camden London WC1V 7EN United Kingdom,Rosewood London,51.5173303,-0.1180966
257 Rue De Vaugirard 15th arr 75015 Paris France,Novotel Paris Vaugirard Montparnasse,48.8399018,2.3031011
26 28 Trebovir Rd Kensington and Chelsea London SW5 9NJ United Kingdom,Mayflower Hotel Apartments,51.4916677,-0.1947475
26 33 Queens Gardens Westminster Borough London W2 3BE United Kingdom,Caesar Hotel,51.51346029999999,-0.1833081
26 42 Bond Street Ealing London W5 5AA United Kingdom,Hotel Xanadu,51.5117907,-0.306071
26 Cadogan Gardens Kensington and Chelsea London SW3 2RP United Kingdom,Draycott Hotel,51.4930097,-0.159715
265 Rotherhithe Street Southwark London SE16 5HW United Kingdom,DoubleTree by Hilton London Docklands Riverside,51.5043483,-0.0334436
27 33 Harrington Gardens Kensington and Chelsea London SW7 4JX United Kingdom,Bentley London,51.4928147,-0.1841753
27 avenue des Ternes 17th arr 75017 Paris France,Mercure Paris Arc de Triomphe Etoile,48.8782679,2.294852
27 Devonshire Terrace Westminster Borough London W2 3DP United Kingdom,Park Grand Paddington Court,51.5135555,-0.180002
277 Carrer de Proven a Eixample 08037 Barcelona Spain,The One Barcelona GL,41.3961448,2.1631674
28 30 Seymour Street Westminster Borough London W1H 7JB United Kingdom,The Zetter Townhouse Marylebone,51.514839,-0.1586656
28 av Corentin Cariou 19th arr 75019 Paris France,Forest Hill Paris la Villette,48.8969854,2.3852745
28 Basil Street Kensington and Chelsea London SW3 1AS United Kingdom,The Levin Hotel,51.4998574,-0.161717
28 Ebury Street Westminster Borough London SW1W 0LU United Kingdom,The Tophams Hotel,51.4957436,-0.1477528
28 place des Vosges 3rd arr 75003 Paris France,Le Pavillon de la Reine Spa,48.8562725,2.3660412
28 Rue de l Arc de Triomphe 17th arr 75017 Paris France,Hidden Hotel by Elegancia,48.8775326,2.293458
28 rue Saint Roch 1st arr 75001 Paris France,Le Roch Hotel Spa,48.8661991,2.3328826
284 To 302 Waterloo Road Southwark London SE1 8RQ United Kingdom,H10 London Waterloo,51.49888170000001,-0.1062888
29 31 Draycott Place Kensington and Chelsea London SW3 2SH United Kingdom,San Domenico House,51.4917798,-0.1616049
29 31 Gower Street Camden London WC1E 6HG United Kingdom,Bloomsbury Palace Hotel,51.5207945,-0.1310845
29 31 rue de Poitou 3rd arr 75003 Paris France,Hotel du Petit Moulin,48.8615843,2.3620652
29 31 rue des Ecoles 5th arr 75005 Paris France,Hotel Atmospheres,48.84853870000001,2.3479852
29 Avenue De Tourville 7th arr 75007 Paris France,H tel La Comtesse by Elegancia,48.853865,2.3072019
29 rue Caumartin 9th arr 75009 Paris France,Hotel Astra Opera Astotel,48.8718321,2.3278866000000003
29 Rue Jacob 6th arr 75006 Paris France,Hotel La Villa Saint Germain Des Pr s,48.855348600000006,2.3340736
29 rue Victor Mass 9th arr 75009 Paris France,Grand Pigalle Hotel,48.880856,2.3375085
291 Greenwich High Road Greenwich Greenwich London SE10 8NA United Kingdom,Innkeeper s Lodge London Greenwich,51.4801631,-0.0097201
2e Hugo de Grootstraat 2 6 Westerpark 1052 LC Amsterdam Netherlands,Morgan Mees,52.37437120000001,4.8746196
3 5 rue du Mont Thabor 1st arr 75001 Paris France,Hotel Duminy Vendome,48.8654726,2.3292934
3 avenue Mac Mahon 17th arr 75017 Paris France,Maison Albar H tel Paris Champs Elys es ex Mac Mahon ,48.87538370000001,2.2944651
3 Berkeley Street Westminster Borough London W1J 8NE United Kingdom,Holiday Inn London Mayfair,51.507746,-0.1422993
3 Bis Place Saint Sulpice 6th arr 75006 Paris France,H tel Recamier,48.8503493,2.3344305
3 Boulevard Montmartre 2nd arr 75002 Paris France,TRYP Paris Op ra,48.8713619,2.3426375
3 Boulevard Saint Michel 5th arr 75005 Paris France,Royal Saint Michel,48.8528364,2.3440803
3 Devonshire Terrace Westminster Borough London W2 3DN United Kingdom,Paddington Court Executive Rooms,51.5138357,-0.1797976
3 Kingdom Street Sheldon Square Westminster Borough London W2 6BD United Kingdom,Novotel London Paddington,51.519032,-0.1825943
3 Place du G n ral Koenig 17th arr 75017 Paris France,Hyatt Regency Paris Etoile,48.8802782,2.2843852000000004
3 Rue Abb De L Ep e 5th arr 75005 Paris France,Relais Saint Jacques,48.8430523,2.3422519
3 Rue Cambon 1st arr 75001 Paris France,Hotel Cambon,48.866435,2.3251076
3 Rue Caulaincourt 18th arr 75018 Paris France,Mercure Paris Montmartre Sacr Coeur,48.8852794,2.3301021
3 Rue Christine 6th arr 75006 Paris France,Relais Christine,48.8542454,2.339956
3 rue Clauzel 9th arr 75009 Paris France,Les Matins de Paris Spa,48.878932,2.3394182
3 Rue De Boulainvilliers 16th arr 75016 Paris France,Hotel Square,48.851589,2.2777274
3 rue de Bourgogne 7th arr 75007 Paris France,H tel Bourgogne Montana by MH,48.860192700000006,2.318423
3 rue de Castiglione 1st arr 75001 Paris France,The Westin Paris Vend me,48.8657394,2.3274415
3 Rue de Montalembert 7th arr 75007 Paris France,Hotel Montalembert,48.8567042,2.3277805
3 rue de Ponthieu 8th arr 75008 Paris France,H tel Mathis Elys es,48.8700325,2.3112736000000003
3 rue du Pr aux Clercs 7th arr 75007 Paris France,Le Saint Hotel Paris,48.85654210000001,2.3303504
3 rue Lepic 18th arr 75018 Paris France,Hotel Le Squara,48.884165,2.3328261
3 Rue Pergolese 16th arr 75116 Paris France,L Hotel Pergol se Paris,48.8756618,2.2863468
3 Rue Rouget De Lisle 1st arr 75001 Paris France,H tel Mayfair Paris,48.8661363,2.3260648
3 Rue Verniquet 17th arr 75017 Paris France,Best Western Plus de Neuville Arc de Triomphe,48.8869128,2.3004034
3 South Place City of London London EC2M 2AF United Kingdom,South Place Hotel,51.5189182,-0.0866009
3 Westbourne Terrace Lancaster Gate Westminster Borough London W2 3UL United Kingdom,The Royal Park Hotel,51.5142054,-0.17660979999999998
30 32 Boulevard Poissonni re 9th arr 75009 Paris France,Holiday Inn Paris Op ra Grands Boulevards,48.8715469,2.3439622000000004
30 Barkston Gardens Kensington and Chelsea London SW5 0EN United Kingdom,Henley House Hotel,51.4922348,-0.1914229
30 Jamestown Road Camden London NW1 7BY United Kingdom,Holiday Inn London Camden Lock,51.5404555,-0.1460833
30 John Islip St Westminster Borough London SW1P 4DD United Kingdom,DoubleTree by Hilton London Westminster,51.49323560000001,-0.1269082
30 Leinster Gardens Bayswater Westminster Borough London W2 3AN United Kingdom,Blakemore Hyde Park,51.5129736,-0.1837431
30 Portman Square Westminster Borough London W1H 7BH United Kingdom,Hyatt Regency London The Churchill,51.5156471,-0.1572443
30 Rathbone Street West End Westminster Borough London W1T 1LB United Kingdom,Rathbone,51.51868010000001,-0.1354055
30 Rue de Bassano 16th arr 75016 Paris France,Le Belmont Champs Elys es,48.8691984,2.2979052
30 Rue Duret 16th arr 75016 Paris France,Duret,48.87525529999999,2.286653
30 Rue Jean Mermoz 8th arr 75008 Paris France,H tel Elysees Mermoz,48.8715079,2.3122259
30 Rue La P rouse 16th arr 75016 Paris France,Majestic Hotel Spa,48.8703672,2.2938868
30 rue Pernety 14th arr 75014 Paris France,BoB Hotel by Elegancia,48.8335233,2.3191194
31 33 Argyle Street Camden London WC1H 8EP United Kingdom,Comfort Inn Suites Kings Cross St Pancras,51.5289499,-0.1232979
31 34 Queen s Gate Kensington and Chelsea London SW7 5JA United Kingdom,The Queens Gate Hotel,51.4981225,-0.1799693
31 35 Langham Street Westminster Borough London W1W 6BU United Kingdom,Grange Langham Court Hotel,51.51890770000001,-0.1421957
31 36 Leicester Square Westminster Borough London WC2H 7LH United Kingdom,Radisson Blu Edwardian Hampshire,51.509963,-0.129797
31 Avenue George V 8th arr 75008 Paris France,Four Seasons Hotel George V Paris,48.86875120000001,2.3001692000000005
31 Great Cumberland Place Westminster Borough London W1H 7TA United Kingdom,The Marble Arch London,51.5151247,-0.1600656
31 rue de la Folie M ricourt 11th arr 75011 Paris France,H tel Fabric,48.8629329,2.3723822999999995
31 Rue de Surene 8th arr 75008 Paris France,H tel du Minist re,48.8712877,2.3191903
31 St Thomas Street Southwark London SE1 9QU United Kingdom,Shangri La Hotel at The Shard London,51.5044972,-0.0855562
32 rue des Ecoles 5th arr 75005 Paris France,Hotel Les Bulles De Paris,48.849147,2.3471935
32 rue des Saints P res 7th arr 75007 Paris France,Acad mie H tel Saint Germain,48.855263,2.3305901
32 Rue Greuze 16th arr 75016 Paris France,Plaza Tour Eiffel,48.8645647,2.2821827
33 37 Hogarth Road Kensington and Chelsea London SW5 0QQ United Kingdom,Park Grand London Kensington,51.4938468,-0.1917582
33 Albemarle Street Mayfair Westminster Borough London W1S 4BP United Kingdom,Rocco Forte Brown s Hotel,51.5090558,-0.14216610000000002
33 avenue de Friedland 8th arr 75008 Paris France,Royal Hotel Champs Elys es,48.8740463,2.300196
33 Avenue Du Docteur Arnold Netter 12th arr 75012 Paris France,Best Western Allegro Nation,48.8430891,2.4049867000000003
33 avenue George V 8th arr 75008 Paris France,Prince de Galles a Luxury Collection hotel Paris,48.869143,2.3006526000000003
33 Beaufort Gardens Kensington and Chelsea London SW3 1PP United Kingdom,The Beaufort,51.4978466,-0.164156
33 Boulevard du Montparnasse 6th arr 75006 Paris France,H tel La Parizienne by Elegancia,48.8450894,2.3209503
33 place de la Madeleine 8th arr 75008 Paris France,Madeleine Plaza,48.8710402,2.3248014
33 Roland Gardens Kensington and Chelsea London SW7 3PF United Kingdom,Blakes Hotel,51.48924470000001,-0.1803196
33 Rue Cambon 1st arr 75001 Paris France,Castille Paris Starhotels Collezione,48.86829779999999,2.3268027
33 Rue Dauphine 6th arr 75006 Paris France,H tel D Aubusson,48.8547329,2.3395277
33 rue Marbeuf 8th arr 75008 Paris France,Hotel Oscar,48.8694755,2.3046954
33 rue Raymond Losserand 14th arr 75014 Paris France,Best Western Bretagne Montparnasse,48.8354314,2.321142
335 337 High Street Stratford Newham London E15 2TF United Kingdom,The Westbridge Hotel,51.5373904,-0.0023367
335 337 Old Street Hackney London EC1V 9LL United Kingdom,Courthouse Hotel Shoreditch,51.5273442,-0.0796152
336 337 Strand London Westminster Borough London WC2R 1HA United Kingdom,ME London by Melia,51.511879,-0.118552
34 37 Bedford Place Bloomsbury Camden London WC1B 5JR United Kingdom,Grange Clarendon Hotel,51.5197933,-0.1241844
34 44 Barkston Gardens Kensington and Chelsea London SW5 0EW United Kingdom,Hotel Indigo London Kensington,51.4920287,-0.1917801
34 Avenue Porte d Asni res 17th arr 75017 Paris France,Novotel Paris 17,48.8920485,2.3023791
34 Lombard Road Battersea London SW11 3RF United Kingdom,Rafayel Hotel Spa,51.4703604,-0.1779869
34 Norfolk Place Paddington Westminster Borough London W2 1QW United Kingdom,Norfolk Towers Paddington,51.5162883,-0.1721078
34 Rue de Buci 6th arr 75006 Paris France,Artus Hotel by MH,48.8535639,2.3360169
34 rue de Moscou 8th arr 75008 Paris France,Best Western Premier Kapital Op ra,48.8814425,2.3235592
34 Rue Fontaine 9th arr 75009 Paris France,Timhotel Op ra Blanche Fontaine,48.8825781,2.3334805
34 rue Jean Mermoz 8th arr 75008 Paris France,H tel Amastan Paris,48.8716831,2.3123759
34 Rue Viala 15th arr 75015 Paris France,H tel Gustave,48.85020520000001,2.289043
346 348 Edgware Road Westminster Borough London W2 1EA United Kingdom,Best Western Maitrise Hotel Edgware Road,51.521148,-0.171346
35 39 St Georges Drive Westminster Borough London SW1V 4DG United Kingdom,Georgian House Hotel,51.490724,-0.143868
35 Boulevard de la tour Maubourg 7th arr 75007 Paris France,Best Western Tour Eiffel Invalides,48.8593152,2.3104179
35 Charles Street Mayfair Westminster Borough London W1J 5EB United Kingdom,The Chesterfield Mayfair,51.5076899,-0.14713579999999998
35 Ixworth Place Kensington and Chelsea London SW3 3QX United Kingdom,My Chelsea,51.4919083,-0.1684398
35 Rue Benjamin Franklin 16th arr 75016 Paris France,Eiffel Trocad ro,48.8613055,2.2862823
35 Rue Caumartin 9th arr 75009 Paris France,Hotel Saint Petersbourg Opera,48.872174,2.328075
35 Rue De Berri 8th arr 75008 Paris France,H tel Champs lys es Plaza,48.87370429999999,2.3061477000000004
35 Rue Jean Goujon 8th arr 75008 Paris France,Melia Paris Tour Eiffel,48.8651994,2.3045076
35 Rue La Bruy re 9th arr 75009 Paris France,Timhotel Op ra Grands Magasins,48.87946820000001,2.3334957000000003
35 St James s Place Westminster Borough London SW1A 1NY United Kingdom,Dukes Hotel,51.5055381,-0.1396885
350 Oxford Street Westminster Borough London W1C 1BY United Kingdom,Radisson Blu Edwardian Berkshire,51.5146025,-0.1481978
354 Queenstown Road Battersea London SW8 4AE United Kingdom,Pestana Chelsea Bridge Hotel Spa,51.4815995,-0.1481053
36 37 Lancaster Gate Westminster Borough London W2 3NA United Kingdom,Arbor Hyde Park,51.5126488,-0.1803795
36 38 Rue Du Moulin 92170 Paris France,Mercure Paris Porte De Versailles Expo,48.8268251,2.2912033
36 Great st Helens City of London London EC3A 6AP United Kingdom,Great St Helen Hotel,51.5149583,-0.08238689999999999
36 rue de Saint Quentin 10th arr 75010 Paris France,Hotel Whistler,48.879314,2.3560185
36 rue du Grenier Saint Lazare 3rd arr 75003 Paris France,Hotel Georgette,48.8632723,2.352691
36 rue Pierre Demours 17th arr 75017 Paris France,Westside Arc de Triomphe Hotel,48.8811741,2.2948337000000003
36 rue Saint Ferdinand 17th arr 75017 Paris France,Etoile Saint Ferdinand,48.8777895,2.2872498
36 Rue Saint Marc 2nd arr 75002 Paris France,H tel Saint Marc,48.8708863,2.3382127999999995
368 370 Green Lanes London N4 1DA United Kingdom,United Lodge Hotel and Apartments,51.5743549,-0.0977567
37 Avenue De La Motte Picquet 7th arr 75007 Paris France,H tel Le Walt,48.85471610000001,2.306642
37 Avenue Hoche 8th arr 75008 Paris France,H tel Le Royal Monceau Raffles Paris,48.8756359,2.3004967
37 Eccleston Square Westminster Borough London SW1V 1PB United Kingdom,Eccleston Square Hotel,51.4911924,-0.1449474
37 Nottingham Place Westminster Borough London W1U 5LT United Kingdom,Nottingham Place Hotel,51.522143,-0.153385
37 rue Fran ois 1er 8th arr 75008 Paris France,Hotel Claridge Paris,48.8684243,2.3036244
372 Strand Westminster Borough London WC2R 0JJ United Kingdom,Strand Palace Hotel,51.5110993,-0.1208673
38 rue de l Echiquier 10th arr 75010 Paris France,H tel L Echiquier Op ra Paris MGallery by Sofitel,48.8719889,2.3492912999999995
38 Rue Du Faubourg Saint Honore 8th arr 75008 Paris France,H tel De Castiglione,48.8691758,2.3205807000000003
380 Kensington High Street Kensington and Chelsea London W14 8NL United Kingdom,Hilton London Olympia,51.4967399,-0.2064723
39 40 Bedford Place Bloomsbury Camden London WC1B 5JT United Kingdom,Grange Buckingham Hotel,51.5196124,-0.1239628
39 40 Cleveland Square Westminster Borough London W2 6DA United Kingdom,The Cleveland,51.51396920000001,-0.1828202
39 40 Dorset Square Hotel Westminster Borough London NW1 6QN United Kingdom,Dorset Square Hotel,51.52263610000001,-0.16028710000000002
39 Avenue de l Op ra 2nd arr 75002 Paris France,Edouard 7 Paris Op ra,48.8683133,2.3330851000000004
39 Avenue de Wagram 17th arr 75017 Paris France,Renaissance Paris Arc de Triomphe Hotel,48.8772093,2.2968266
39 Buckingham Palace Road Westminster Borough London SW1W 0PS United Kingdom,Rubens At The Palace,51.4981471,-0.14364920000000006
39 Coventry Street Westminster Borough London W1D 6BZ United Kingdom,every hotel Piccadilly,51.51014620000001,-0.1315061
4 18 Harrington Gardens Kensington and Chelsea London SW7 4LH United Kingdom,Millennium Gloucester Hotel London,51.4935083,-0.1834346
4 Boulevard Brune 14th arr 75014 Paris France,Novotel Suites Paris Expo Porte de Versailles,48.827388,2.305478
4 Boulevard Raspail 7th arr 75007 Paris France,K K H tel Cayr Saint Germain des Pr s,48.8553117,2.3254627999999995
4 Broad Court Bow Street Covent Garden Westminster Borough London WC2B 5QZ United Kingdom,Fielding Hotel,51.5139315,-0.1219893
4 Bryanston St Marble Arch Westminster Borough London W1H 7BY United Kingdom,DoubleTree by Hilton Hotel London Marble Arch,51.514573,-0.15666
4 Portal Way Gypsy Corner A40 London W3 6RT United Kingdom,Holiday Inn London West,51.5210117,-0.2628618
4 Richmond Mews Westminster Borough London W1D 3DH United Kingdom,The Soho Hotel,51.5139805,-0.1337948
4 rue Amsterdam 9th arr 75009 Paris France,Le Grand H tel de Normandie,48.8759461,2.3270955
4 rue Cadet 9th arr 75009 Paris France,Monsieur Cadet Hotel Spa Ex Meyerhold Spa ,48.8742767,2.3426276
4 rue d Alger 1st arr 75001 Paris France,H tel de La Tamise Esprit de France,48.8648656,2.3295756
4 rue d Anjou 8th arr 75008 Paris France,Buddha Bar Hotel Paris,48.8694695,2.3208564
4 rue d Artois 8th arr 75008 Paris France,Le A,48.8723844,2.3088663
4 rue Danton 6th arr 75006 Paris France,Holiday Inn Paris Notre Dame,48.8528427,2.3422256
4 Rue de L Isly 8th arr 75008 Paris France,Mercure Paris Opera Garnier,48.8749511,2.3259532000000003
4 Rue De Valois 1st arr 75001 Paris France,Grand H tel Du Palais Royal,48.8630829,2.3378592
4 Rue des Petites Ecuries 10th arr 75010 Paris France,Best Western Aulivia Op ra,48.8730552,2.3540112
4 Rue Du Mont Thabor 1st arr 75001 Paris France,Renaissance Paris Vendome Hotel,48.8654532,2.3295231
4 Rue La Boetie 8th arr 75008 Paris France,Hotel Park Lane Paris,48.8745879,2.3188143
4 rue Salomon de Caus 3rd arr 75003 Paris France,Little Palace Hotel,48.8675674,2.3539896
40 avenue de Friedland 8th arr 75008 Paris France,Napoleon Paris,48.8743885,2.2980915
40 Liverpool Street City of London London EC2M 7QN United Kingdom,Andaz London Liverpool Street,51.5172825,-0.0812451
40 Marsh Wall Tower Hamlets London E14 9TP United Kingdom,Novotel London Canary Wharf,51.5011704,-0.0232607
40 rue de Lille 7th arr 75007 Paris France,H tel de Lille,48.8585626,2.3299138
40 Rue du Commandant Ren Mouchotte 14th arr 75014 Paris France,H tel Concorde Montparnasse,48.8381079,2.318669
40 rue Liancourt 14th arr 75014 Paris France,Suites H tel Helzear Montparnasse,48.8346811,2.3255098
40 Rue Rene Boulanger 10th arr 75010 Paris France,Renaissance Paris Republique Hotel Spa,48.8687804,2.3610196
40 trinity square City of London London EC3N 4DJ United Kingdom,citizenM Tower of London,51.510237,-0.0764428
407 Goldhawk Rd Chiswick London W6 0SA United Kingdom,Chiswick Rooms,51.4937409,-0.244896
41 43 Brook Street Westminster Borough London W1K 4HJ United Kingdom,Claridge s,51.5125035,-0.14774379999999998
41 51 Inverness Terrace Westminster Borough London W2 3JN United Kingdom,La Suite West Hyde Park,51.5126758,-0.1867828
41 54 Buckingham Gate Westminster Borough London SW1E 6AF United Kingdom,St James Court A Taj Hotel London,51.4986732,-0.13768670000000002
41 Avenue Marceau 16th arr 75016 Paris France,Elys es R gencia,48.8686434,2.2984054
41 Avenue Pierre 1er de Serbie 8th arr 75008 Paris France,H tel De Sers Champs Elys es Paris,48.8683593,2.3002117
41 boulevard Saint Michel 5th arr 75005 Paris France,Hotel le Lapin Blanc,48.84918010000001,2.3423357000000005
41 Buckingham Palace Road Westminster Borough London SW1W 0PS United Kingdom,41,51.4981471,-0.14364920000000006
41 Great Cumberland Place Westminster Borough London W1H 7LG United Kingdom,Shaftesbury Suites London Marble Arch,51.515755,-0.1603335
41 Queens Gate Gardens Kensington and Chelsea London SW7 5NB United Kingdom,Grange Strathmore Hotel,51.4958184,-0.1813958
41 rue de Clichy 9th arr 75009 Paris France,H tel R de Paris Boutique Hotel,48.8799239,2.3288332
41 Rue Des Ecoles 5th arr 75005 Paris France,Villa Panth on,48.8488044,2.3469889
41 rue Jean Baptiste Pigalle 9th arr 75009 Paris France,Trinit Haussmann,48.8800565,2.3342353
419 437 Hackney Road London E2 8PP United Kingdom,The RE London Shoreditch,51.531979,-0.061598
42 46 Chiswell Street City of London London EC1Y 4SB United Kingdom,London City Suites,51.5206309,-0.0915341
42 rue Croix des Petits Champs 1st arr 75001 Paris France,H tel Crayon Rouge by Elegancia,48.8644967,2.3405415
42 Rue Des Petites Ecuries 10th arr 75010 Paris France,Mercure Paris Opera Grands Boulevards,48.8740668,2.3502172000000003
43 51 Wembley Hill Road Brent London HA9 8AU United Kingdom,St George s Hotel Wembley,51.5553678,-0.28649450000000004
43 Rue De l Abb Gr goire 6th arr 75006 Paris France,Hotel Le Saint Gregoire,48.8471891,2.3260138
43 Rue des Mathurins 8th arr 75008 Paris France,Le Mathurin Hotel Spa,48.8732068,2.3239015
43 rue Monsieur le Prince 6th arr 75006 Paris France,H tel Saint Paul Rive Gauche,48.84968189999999,2.3402806000000003
43 Worple Road Wimbledon London SW19 4JZ United Kingdom,The Justin James Hotel,51.4202661,-0.211268
44 Grosvenor Square Westminster Borough London W1K 2HP United Kingdom,Millennium Hotel London Mayfair,51.510574,-0.1509951
44 rue de Bourgogne 7th arr 75007 Paris France,H tel de Varenne,48.8570275,2.3170282
44 Rue Madame 6th arr 75006 Paris France,A La Villa Madame,48.8488608,2.3315257000000003
45 Curtain Road Hackney London EC2A 4PJ United Kingdom,The Curtain,51.5237209,-0.0806178
45 Park Lane Westminster Borough London W1K 1PN United Kingdom,45 Park Lane Dorchester Collection,51.5063709,-0.1515359
45 Prescot Street City of London London E1 8GP United Kingdom,Grange Tower Bridge Hotel,51.5115509,-0.0714919
45 Rue des Acacias 17th arr 75017 Paris France,Le Tsuba Hotel,48.87776210000001,2.293177
45 St Martin s Lane Westminster Borough London WC2N 4HX United Kingdom,St Martins Lane A Morgans Original,51.5104696,-0.12658239999999998
46 Avenue George V 8th arr 75008 Paris France,H tel Barri re Le Fouquet s,48.8710709,2.3013119
46 Blackfriars Road Southwark London SE1 8NZ United Kingdom,Novotel London Blackfriars,51.5050165,-0.1049831
46 Rue De Tr vise 9th arr 75009 Paris France,Hotel Villa Lafayette Paris IX,48.87608839999999,2.3456465
46 Westferry Circus Tower Hamlets London E14 8RS United Kingdom,Canary Riverside Plaza Hotel,51.50669910000001,-0.0280208
47 Welbeck Street Westminster Borough London W1G 8DN United Kingdom,The Marylebone Hotel,51.51802070000001,-0.1500567
48 Rue De L arbre Sec 1st arr 75001 Paris France,L Empire Paris,48.8607764,2.3427564
49 50 St John s Square Islington London EC1V 4JJ United Kingdom,The Zetter Townhouse Clerkenwell,51.52315640000001,-0.1035134
49 53 New Road Tower Hamlets London E1 1HH United Kingdom,The Whitechapel,51.5161286,-0.06244580000000001
49 Avenue Marceau 16th arr 75116 Paris France,Suites H tel Helzear Champs Elys es,48.8691399,2.2981024
49 Gloucester Place Marble Arch Westminster Borough London W1U 8JE United Kingdom,St George Hotel,51.5182768,-0.1583511
49 Rue La Fayette 9th arr 75009 Paris France,Best Western Premier Op ra Faubourg Ex Hotel Jules ,48.8753359,2.3414617
49 rue Pierre Charron 8th arr 75008 Paris France,Pershing Hall,48.8691325,2.3021659
5 7 Princes Square Kensington and Chelsea London W2 4NP United Kingdom,The Premier Notting Hill,51.5127453,-0.1926437
5 7 Rue De Montalembert 7th arr 75007 Paris France,H tel Pont Royal,48.85656289999999,2.3273623
5 7 rue Rampon 11th arr 75011 Paris France,Le G n ral H tel,48.8662695,2.3668616
5 7 Rue Th r se 1st arr 75001 Paris France,H tel Th r se,48.8816306,2.2992146
5 bis rue Massenet 16th arr 75016 Paris France,Best Western Premier Trocadero La Tour,48.858312700000006,2.2795075
5 Cavell Street Tower Hamlets London E1 2BP United Kingdom,Holiday Inn London Whitechapel,51.5154006,-0.057236400000000014
5 Curzon St Westminster Borough London W1J 5HL United Kingdom,Washington Mayfair Hotel,51.5060237,-0.151078
5 Fairmont Avenue Canary Wharf Tower Hamlets London E14 9JB United Kingdom,Radisson Blu Edwardian New Providence Wharf,51.5065578,-0.004514
5 More London Place Tooley Street Southwark London SE1 2BY United Kingdom,Hilton London Tower Bridge,51.504575,-0.082675
5 Olympic Way Wembley Brent London HA9 0NP United Kingdom,Novotel London Wembley,51.5611271,-0.2787261
5 place de l Od on 6th arr 75006 Paris France,Le Relais M dicis,48.8497618,2.3392336
5 Rue Belidor 17th arr 75017 Paris France,Les Jardins De La Villa Spa,48.8801757,2.2859534
5 rue de Berri 8th arr 75008 Paris France,Warwick Paris Former Warwick Champs Elysees ,48.8722019,2.3030866000000003
5 rue de la Paix 2nd arr 75002 Paris France,Park Hyatt Paris Vendome,48.8688155,2.3305236000000003
5 Rue De Malte 11th arr 75011 Paris France,My Home In Paris,48.8636049,2.3688352000000004
5 Rue de Montyon 9th arr 75009 Paris France,Mercure Paris Op ra Faubourg Montmartre,48.8729639,2.3444899
5 rue de Ponthieu 8th arr 75008 Paris France,Best Western Plus Elys e Secret,48.87012470000001,2.311141
5 rue des Arquebusiers 3rd arr 75003 Paris France,Villa Beaumarchais,48.8589516,2.3670407000000004
5 rue des Capucines 1st arr 75001 Paris France,H tel Mansart Esprit de France,48.8684776,2.3298238
5 rue du 8 Mai 1945 10th arr 75010 Paris France,Holiday Inn Paris Gare de l Est,48.8758981,2.3590504
5 rue Louis Codet 7th arr 75007 Paris France,Le Cinq Codet,48.8547869,2.3084819
5 Rue Marivaux 2nd arr 75002 Paris France,La Maison Favart,48.870808,2.3372737
5 Rue Saint Roch 1st arr 75001 Paris France,Le Pradey,48.8645309,2.3315532
5 Threadneedle Street City of London London EC2R 8AY United Kingdom,Threadneedles Autograph Collection,51.5140208,-0.0854919
50 Berners Street Westminster Borough London W1T 3NG United Kingdom,Sanderson A Morgans Hotel,51.5174853,-0.1372109
50 Great Cumberland Place Westminster Borough London W1H 7FD United Kingdom,The Arch London,51.5159214,-0.15987939999999998
50 Lancaster Gate Westminster Borough London W2 3NA United Kingdom,Commodore Hotel,51.5124496,-0.1795215
50 rue de Richelieu 1st arr 75001 Paris France,Golden Tulip Washington Opera,48.866242,2.3373169
50 rue des Bernardins 5th arr 75005 Paris France,Residence Henri IV,48.8481917,2.3490316000000004
51 57 rue de Courcelles 8th arr 75008 Paris France,Hotel du Collectionneur Arc de Triomphe,48.8769204,2.3069132000000003
51 Gloucester Terrace Westminster Borough London W2 3DQ United Kingdom,The Westbourne Hyde Park,51.5131074,-0.17787070000000002
51 Rue de Malte 11th arr 75011 Paris France,Hotel Le Mareuil,48.8659899,2.3674148999999995
51 Rue Lauriston 16th arr 75016 Paris France,Mercure Paris Champs Elys es,48.8699731,2.2909401000000003
51 rue Letort 18th arr 75018 Paris France,Best Western Le 18 Paris,48.8966167,2.3434843
52 54 Upper Richmond Road Wandsworth London SW15 2RN United Kingdom,The Lodge Hotel Putney,51.45729910000001,-0.2055425
52 56 Inverness Terrace Westminster Borough London W2 3LB United Kingdom,Shaftesbury Hyde Park International,51.5123968,-0.186124
52 Chiswell Street City of London London EC1Y 4SD United Kingdom,The Montcalm At Brewery London City,51.52081550000001,-0.0915319
52 rue Francois 1er 8th arr 75008 Paris France,H tel Powers,48.8691409,2.3031502999999995
52 rue Jenner 13th arr 75013 Paris France,Villa Lut ce Port Royal,48.8364204,2.3603332000000004
52 Rue Oradour sur Glane 15th arr 75015 Paris France,Oceania Paris Porte De Versailles,48.8303023,2.2842872000000005
53 59 Kilburn High Road Maida Vale London Camden London NW6 5SB United Kingdom,BEST WESTERN Maitrise Hotel Maida Vale,51.5366053,-0.1919832
53 61 Southwark Bridge Road Southwark London SE1 9HH United Kingdom,Novotel London City South,51.50548320000001,-0.0951196
53 Park Lane Westminster Borough London W1K 1QA United Kingdom,The Dorchester Dorchester Collection,51.50740070000001,-0.1524593
53 Rue Richard Lenoir 11th arr 75011 Paris France,Mercure Paris Bastille Marais,48.8571207,2.3805581
53 Upper Street Islington London N1 0UY United Kingdom,Hilton London Angel Islington,51.5360906,-0.1048176
54 Queens Gate Kensington and Chelsea London SW7 5JW United Kingdom,Fifty Four Boutique Hotel,51.4963008,-0.1796853
54 rue Pierre Charron 8th arr 75008 Paris France,Chateau Frontenac,48.8689468,2.3026558999999995
54 Rue Saint Louis En L Ile 4th arr 75004 Paris France,H tel Du Jeu De Paume,48.8520377,2.3557092
54 Upper Berkeley Street Westminster Borough London W1H 7QR United Kingdom,The Sumner Hotel,51.51528920000001,-0.160898
54 Uxbridge Road Shepherds Bush Hammersmith and Fulham London W12 8LP United Kingdom,W12 Rooms,51.5045326,-0.2191174
55 57 Avenue Raymond Poincare 16th arr 75016 Paris France,Renaissance Paris Le Parc Trocadero Hotel,48.8673099,2.2856528
55 61 Westbourne Terrace Westminster Borough London W2 3UY United Kingdom,Shaftesbury Premier London Paddington,51.5153672,-0.1783271
55 Bld Rochechouart 9th arr 75009 Paris France,Hotel Carlton s Montmartre,48.8819068,2.3410005000000003
55 rue Monge 5th arr 75005 Paris France,Hotel Monge,48.8447938,2.3524462
56 57 Frith Street Westminster Borough London W1D 3JG United Kingdom,Mimi s Hotel Soho,51.5140329,-0.13206510000000002
56 rue de Montorgueil 2nd arr 75002 Paris France,Victoires Opera,48.8648997,2.3469432999999995
57 59 Welbeck Street Westminster Borough London W1G 9BL United Kingdom,Holiday Inn London Oxford Circus,51.516843,-0.14955739999999998
58 Shepherds Bush Green Hammersmith and Fulham London W12 8QE United Kingdom,Dorsett Shepherds Bush,51.5039399,-0.2244232
59 Leinster Square Kensington and Chelsea London W2 4PS United Kingdom,New Linden Hotel,51.51338320000001,-0.1926617
6 8 Rue Duphot 1st arr 75001 Paris France,Le Burgundy Paris,48.8680055,2.3260075
6 Avenue Fr miet 16th arr 75016 Paris France,Hotel Sezz Paris,48.8566336,2.2852607000000003
6 Avenue Montaigne 8th arr 75008 Paris France,Hotel Montaigne,48.865467,2.3038811000000003
6 Avenue Victor Hugo 16th arr 75116 Paris France,Hotel Royal Elys es,48.87296660000001,2.2926226
6 Boulevard Vincent Auriol 13th arr 75013 Paris France,Mercure Paris Bercy Biblioth que,48.8370334,2.372322
6 Frith Street Soho Westminster Borough London W1D 3JA United Kingdom,Hazlitt s,51.5143447,-0.1318157
6 Hercules Road Lambeth London SE1 7DP United Kingdom,Park Plaza London Waterloo,51.4982412,-0.1134715
6 Holywell Lane Hackney London EC2A 3ET United Kingdom,citizenM London Shoreditch,51.5241373,-0.07869830000000001
6 rue Balzac 8th arr 75008 Paris France,H tel Balzac,48.8732785,2.3004174
6 Rue Blaise Desgoffe 6th arr 75006 Paris France,Victoria Palace Hotel,48.84575870000001,2.3243071
6 rue Buffault 9th arr 75009 Paris France,Hotel Eug ne en Ville,48.8750119,2.3416769
6 rue Chauveau Lagarde 8th arr 75008 Paris France,Newhotel Roblin,48.8714152,2.3239679
6 Rue Constance 18th arr 75018 Paris France,Le Relais Montmartre,48.88545379999999,2.3335809
6 Rue de l Arcade 8th arr 75008 Paris France,Amarante Beau Manoir,48.870994,2.3235329
6 Rue De La Tour 16th arr 75016 Paris France,Hotel Maison FL,48.8396395,2.2663056
6 rue du General Lanrezac 17th arr 75017 Paris France,Balmoral Champs Elys es,48.8759855,2.2939380000000003
6 rue du Helder 9th arr 75009 Paris France,The Chess Hotel,48.87160170000001,2.3349768
6 rue Gustave Charpentier 17th arr 75017 Paris France,AC Hotel Paris Porte Maillot by Marriott,48.8820046,2.2818537999999995
6 Rue Lecluse 17th arr 75017 Paris France,B Montmartre,48.883631,2.3257642999999995
6 Rue Pierre Demours 17th arr 75017 Paris France,H tel Regent s Garden,48.8797513,2.2919634
6 Rue Saint Lambert 15th arr 75015 Paris France,Mercure Paris 15 Porte de Versailles,48.8382542,2.2903494
6 Rue Saint Placide 6th arr 75006 Paris France,Hotel Le Placide Saint Germain Des Pr s,48.8498439,2.3244253
6 Via Aristotile Fioravanti Garibaldi Station 20154 Milan Italy,Hotel VIU Milan,45.488764,9.183057000000002
6 Waterloo Place Westminster Borough London SW1Y 4AN United Kingdom,Sofitel London St James,51.5076044,-0.132266
60 Hyde Park gate Kensington and Chelsea London SW7 5BB United Kingdom,Baglioni Hotel London The Leading Hotels of the World,51.5017224,-0.1846243
60 Pentonville Road Islington London N1 9LA United Kingdom,DoubleTree by Hilton London Islington,51.5322508,-0.1095714
60 rue Richer 9th arr 75009 Paris France,Nell Hotel Suites,48.8741002,2.3426357
61 Gloucester Road Kensington and Chelsea London SW7 4PE United Kingdom,Rydges Kensington Hotel,51.4956883,-0.1827878
61 Lincoln s Inn Fields Camden London WC2A 3JW United Kingdom,Club Quarters Hotel Lincoln s Inn Fields,51.5160988,-0.1181749
61 Quai De Grenelle 15th arr 75015 Paris France,Novotel Paris Centre Tour Eiffel,48.8500283,2.2834126
61 rue de la Voute 12th arr 75012 Paris France,Best Western Plus 61 Paris Nation Hotel,48.8465653,2.4102405
62 Rue Des Mathurins 8th arr 75008 Paris France,Hotel Monsieur,48.8735135,2.3217457
62 Rue Saint Dominique 7th arr 75007 Paris France,Hotel Saint Dominique,48.8599998,2.3087425
626 Chiswick High St Chiswick London W4 5RY United Kingdom,Clayton Hotel Chiswick,51.4924184,-0.27847009999999994
628 Western Avenue London W3 0TA United Kingdom,Park Plaza London Park Royal,51.527262,-0.282992
63 rue de Richelieu 2nd arr 75002 Paris France,Hotel Malte Astotel,48.8672474,2.33738
64 76 Hendon Way London NW2 2NL United Kingdom,Best Western Palm Hotel,51.5634756,-0.2042758
64 Avenue Marceau 8th arr 75008 Paris France,InterContinental Paris Avenue Marceau,48.8706373,2.2982095
64 Boulevard de Grenelle 15th arr 75015 Paris France,Mercure Tour Eiffel Grenelle,48.850448,2.2928845
64 Rue Crozatier 12th arr 75012 Paris France,Mercure Paris Bastille Saint Antoine,48.849574,2.3798517999999995
64 Rue de l Arbre Sec 1st arr 75001 Paris France,Boutique H tel Konfidentiel,48.8612535,2.3426256000000003
65 73 Shaftesbury Avenue Westminster Borough London W1D 6EX United Kingdom,The Piccadilly London West End,51.51219570000001,-0.1318384
65 rue Blanche 9th arr 75009 Paris France,R Kipling by Happyculture,48.8820838,2.3315849
65 rue des Saints P res 6th arr 75006 Paris France,Hotel Des Saints Peres Esprit de France,48.8534026,2.3299043
66 Boulevard Barb s 18th arr 75018 Paris France,Best Western Hotel Montmartre Sacr Coeur,48.888539,2.3498459
66 Great Queen Street Covent Garden Camden London WC2B 5BX United Kingdom,Kingsway Hall Hotel,51.5158643,-0.1200625
66 Knightsbridge Westminster Borough London SW1X 7LA United Kingdom,Mandarin Oriental Hyde Park London,51.5022081,-0.1599428
67 rue Blanche 9th arr 75009 Paris France,H tel Jos phine by Happyculture,48.8823141,2.3316688
68 86 Cromwell Road Kensington Kensington and Chelsea London SW7 5BT United Kingdom,Radisson Blu Edwardian Vanderbilt,51.4953691,-0.1818966
68 Boulevard De Clichy 18th arr 75018 Paris France,Hotel Le Chat Noir,48.8836255,2.3340537999999995
68 Regent Street West End Mayfair Westminster Borough London W1B 4DY United Kingdom,Hotel Cafe Royal,51.5100916,-0.1359431
69 Boulevard Victor 15th arr 75015 Paris France,Mercure Vaugirard Paris Porte De Versailles,48.8330649,2.2879617000000003
69 Vincent Square Westminster Borough London SW1P 2PA United Kingdom,Grange Rochester Hotel,51.4942654,-0.13660260000000002
7 11 Queensberry Place Kensington and Chelsea London SW7 2DL United Kingdom,Gainsborough Hotel,51.4948416,-0.1772056
7 11 Rue Saint Benoit 6th arr 75006 Paris France,H tel Bel Ami,48.8550298,2.3332104
7 8 Park Place Westminster Borough London SW1A 1LP United Kingdom,St James Hotel Club Mayfair,51.50615870000001,-0.1402803
7 9 Copthall Avenue City of London London EC2R 7NJ United Kingdom,Apex London Wall Hotel,51.5160484,-0.0880181
7 9 High Street Kensington Kensington and Chelsea London W8 5NP United Kingdom,Seraphine Kensington Gardens Hotel,51.5021027,-0.187901
7 9 rue du Conservatoire 9th arr 75009 Paris France,Hotel de Nell,48.8732788,2.3466576
7 9 Rue Pierre Chausson 10th arr 75010 Paris France,9Hotel Republique,48.8708419,2.3605864
7 Boulevard Bourdon 4th arr 75004 Paris France,Goralska R sidences H tel Paris Bastille,48.8482842,2.3657251
7 Gracechurch Street City of London London EC3V 0DR United Kingdom,Club Quarters Hotel Gracechurch,51.5127964,-0.0847973
7 Montague Street Bloomsbury Camden London WC1B 5BP United Kingdom,Grange Blooms Hotel,51.51969129999999,-0.1254243
7 Pepys Street City of London London EC3N 4AF United Kingdom,DoubleTree by Hilton Hotel London Tower of London,51.5108412,-0.0780581
7 rue Casimir Delavigne 6th arr 75006 Paris France,H tel Baume,48.8501522,2.3392782000000003
7 rue Cl ment Marot 8th arr 75008 Paris France,Hotel West End,48.8671391,2.3038447
7 rue d Argenson 8th arr 75008 Paris France,Arioso,48.8746066,2.3167195
7 rue de Berri 8th arr 75008 Paris France,H tel Lancaster Paris Champs Elys es,48.8723438,2.3033377999999995
7 Rue De L h tel Colbert 5th arr 75005 Paris France,Melia Paris Notre Dame,48.8515198,2.3486511
7 Rue des Petits H tels 10th arr 75010 Paris France,Hotel Mademoiselle,48.8772493,2.3543043
7 Rue Du Bourg L abb 3rd arr 75003 Paris France,Hotel Les Bains Paris,48.86382800000001,2.3519345
7 rue du G n ral de Larminat 15th arr 75015 Paris France,Hotel Ares Eiffel,48.8503276,2.2982022
7 Rue Magellan 8th arr 75008 Paris France,Francois 1er,48.87018870000001,2.2997281000000003
7 Rue Paul Albert 18th arr 75018 Paris France,H tel Montmartre Mon Amour,48.886687,2.3449332000000003
7 Rue Rennequin 17th arr 75017 Paris France,Hotel Monceau Wagram,48.8808779,2.2989756000000003
7 Western Gateway Royal Victoria Dock Newham London E16 1AA United Kingdom,Novotel London Excel,51.5077198,0.0229805
70 avenue des Champs Elysees 8th arr 75008 Paris France,Paris Marriott Champs Elysees Hotel,48.8711365,2.3050482000000003
71 79 Southwark Street Southwark London SE1 0JA United Kingdom,Mercure London Bridge,51.50525870000001,-0.099176
71 Rue de Charonne 11th arr 75011 Paris France,H tel Exquis by Elegancia,48.8536854,2.3805796000000004
71 Vincent Square Westminster Borough London SW1P 2PA United Kingdom,Grange Wellington Hotel,51.4944319,-0.1363756
74 rue Amelot 11th arr 75011 Paris France,Les Jardins Du Marais,48.8605219,2.3680239
75 Gower Street Camden London WC1E 6HJ United Kingdom,Hotel Cavendish,51.52205220000001,-0.132414
78 82 Westbourne Terrace Westminster Borough London W2 6QA United Kingdom,Park Grand London Hyde Park,51.5157316,-0.1802179
78 84 Sussex Gardens Westminster Borough London W2 1UH United Kingdom,Shaftesbury Metropolis London Hyde Park,51.5166887,-0.1706147
78 Bis Avenue Marceau 8th arr 75008 Paris France,Radisson Blu Champs Elys es Paris,48.8719212,2.2971404
78 Rue Blomet 15th arr 75015 Paris France,Hotel Eiffel Blomet,48.8416787,2.3022862
79 81 avenue du Maine 14th arr 75014 Paris France,Holiday Inn Paris Gare Montparnasse,48.83829160000001,2.3230188
79 rue Saint Dominique 7th arr 75007 Paris France,H tel Thoumieux,48.8595985,2.3088076
8 10 Queensberry Place Kensington and Chelsea London SW7 2EA United Kingdom,The Exhibitionist Hotel,51.4947754,-0.177789
8 10 Rue F licien David 16th arr 75016 Paris France,Auteuil Tour Eiffel,48.8506499,2.2750873
8 12 Manchester Street Westminster Borough London W1U 4DG United Kingdom,Ten Manchester Street Hotel,51.5188,-0.153839
8 14 Talbot Sq Paddington Westminster Borough London W2 1TS United Kingdom,Mercure London Hyde Park,51.5151149,-0.17438570000000006
8 18 London Bridge St Southwark London SE1 9SG United Kingdom,London Bridge Hotel,51.5052188,-0.088166
8 Avenue Rapp 7th arr 75007 Paris France,Derby Alma,48.8605031,2.3006606
8 Balderton Street Brown Hart Gardens Westminster Borough London W1K 6TF United Kingdom,The Beaumont Hotel,51.513055,-0.152257
8 bis Avenue de la Soeur Rosalie 13th arr 75013 Paris France,Mercure Paris Gobelins Place d Italie,48.8321231,2.3536172000000004
8 Boulevard Beaumarchais 11th arr 75011 Paris France,H tel Original Paris,48.8546989,2.3691899
8 Northumberland Avenue Westminster Borough London WC2N 5BY United Kingdom,The Grand at Trafalgar Square,51.506935,-0.126012
8 Pembridge Garden Kensington and Chelsea London W2 4DU United Kingdom,The Laslett,51.50952589999999,-0.1967234
8 Place Marguerite de Navarre 1st arr 75001 Paris France,Novotel Paris Les Halles,48.8607299,2.3465326
8 Rue Cambon 1st arr 75001 Paris France,Melia Paris Vendome,48.8668228,2.3257729
8 rue Chambiges 8th arr 75008 Paris France,Chambiges Elys es,48.8668048,2.3039465
8 rue d Anjou 8th arr 75008 Paris France,MARQUIS Faubourg St Honor Relais Ch teaux,48.8698184,2.3208729
8 Rue De Bellechasse 7th arr 75007 Paris France,H tel Le Bellechasse Saint Germain,48.8597024,2.3239701
8 rue de Verneuil 7th arr 75007 Paris France,Hotel Verneuil Saint Germain,48.8573706,2.3314669
8 rue Fr d ric Bastiat 8th arr 75008 Paris France,Hotel Daniel Paris,48.87284920000001,2.3073662999999995
8 Rue Francois 1Er 8th arr 75008 Paris France,Residence Du Roy,48.8657687,2.3090386
8 Rue Jean Goujon 8th arr 75008 Paris France,La Maison Champs Elys es,48.866676,2.3089908
8 rue Laferriere 9th arr 75009 Paris France,H tel Arvor Saint Georges,48.8785454,2.3384866
80 86 Belgrave Road Westminster Borough London SW1V 2BJ United Kingdom,The Belgrave Hotel,51.4901051,-0.1381355
81 103 Euston Street Camden London NW1 2EZ United Kingdom,TheWesley,51.52653529999999,-0.1361682
81 boulevard Gouvion Saint Cyr 17th arr 75017 Paris France,Le M ridien Etoile,48.8794646,2.2849548
81 Great Eastern Street Islington London EC2A 3HU United Kingdom,The Hoxton Shoreditch,51.5255136,-0.082927
81 Jermyn Street Westminster Borough London SW1Y 6JF United Kingdom,The Cavendish London,51.5077459,-0.1378733
82 Dalston Lane Hackney London E8 3AH United Kingdom,Avo Hotel,51.5460628,-0.0700817
82 Gloucester Place Westminster Borough London W1U 6HN United Kingdom,Hotel 82 London,51.5195857,-0.1584803
83 avenue Kl ber 16th arr 75016 Paris France,La Clef Tour Eiffel,48.8647019,2.2886425
84 King Street Hammersmith and Fulham London W6 0QW United Kingdom,Best Western Plus Seraphine Hammersmith Hotel,51.4926269,-0.2288598
85 87 RUE DES ARCHIVES 3rd arr 75003 Paris France,La Chambre du Marais,48.8636168,2.3607998
85 Rue De Bercy 12th arr 75012 Paris France,Novotel Paris Centre Bercy,48.8384558,2.3805885
86 88 Clerkenwell Road Islington London EC1M 5RJ United Kingdom,The Zetter Hotel,51.522672,-0.10368410000000003
86 Park Lane Westminster Borough London W1K 7TN United Kingdom,Grosvenor House Suites by Jumeirah Living,51.509841,-0.1552193
86 Quai D Austerlitz 13th arr 75013 Paris France,Hotel OFF Paris Seine,48.8427364,2.3672171000000004
86 Rue Saint Denis 1st arr 75001 Paris France,Snob Hotel by Elegancia,48.8622723,2.3495707
88 Bis Avenue Kl ber 16th arr 75016 Paris France,Sofitel Paris Baltimore Tour Eiffel,48.8663089,2.289609
88 Holland Road Kensington and Chelsea London W14 8BN United Kingdom,88 Studios,51.4992789,-0.2090733
88 Queens Gate Kensington and Chelsea London SW7 5AB United Kingdom,Adria Boutique Hotel,51.493337200000006,-0.1788931
88 rue du Faubourg Poissoni re 10th arr 75010 Paris France,Best Western Premier Faubourg 88,48.8776756,2.3493159
9 11 rue Balzac 8th arr 75008 Paris France,Hotel De Vigny,48.8738672,2.3005894
9 11 Sydney Street Kensington and Chelsea London SW3 6PU United Kingdom,Sydney House Chelsea,51.4910062,-0.1717691
9 13 Bloomsbury Street Nr Covent Garden Camden London WC1B 3QD United Kingdom,Radisson Blu Edwardian Bloomsbury Street,51.517608,-0.1276253
9 Carrefour de l Od on 6th arr 75006 Paris France,H tel Le Relais Saint Germain,48.8519208,2.338878
9 Knaresborough Place Kensington and Chelsea London SW5 0TP United Kingdom,Hotel Moonlight,51.4940285,-0.1910497
9 Place Boulnois 17th arr 75017 Paris France,Villa Alessandra,48.8794223,2.2957628
9 Rue de Constantinople 8th arr 75008 Paris France,Ibis Styles Paris Gare Saint Lazare,48.8796596,2.3209155
9 rue de la Michodi re 2nd arr 75002 Paris France,Golden Tulip Opera de Noailles,48.8696173,2.3346428
9 Rue De Li ge 9th arr 75009 Paris France,Best Western Premier Op ra Li ge,48.87959470000001,2.3280695
9 Rue de Washington 8th arr 75008 Paris France,H tel Cristal Champs Elys es,48.87268140000001,2.3020866
9 Rue du Sommerard 5th arr 75005 Paris France,Best Western Le Jardin de Cluny,48.8497553,2.3467616
9 rue frochot 9th arr 75009 Paris France,Le Pigalle Hotel,48.8816073,2.3371648
9 rue Git le Coeur 6th arr 75006 Paris France,Relais H tel du Vieux Paris,48.85386079999999,2.3429487
9 rue Gr goire de Tours 6th arr 75006 Paris France,Victoire Germain,48.853299,2.337993
9 Rue Littr 6th arr 75006 Paris France,Le Littr ,48.8454447,2.3242814
9 Rue Sainte Beuve 6th arr 75006 Paris France,Hotel Le Sainte Beuve,48.8438998,2.3294858
9 Villa de Saxe 7th arr 75007 Paris France,Hotel Villa Saxe Eiffel,48.849758,2.3095213
90 92 Lancaster Gate Westminster Borough London W2 3NR United Kingdom,Thistle Hyde Park,51.5112451,-0.1808938
92 rue de Vaugirard 6th arr 75006 Paris France,Holiday Inn Paris Saint Germain des Pr s,48.846837,2.3258066000000004
92 Rue Du Cherche Midi 6th arr 75006 Paris France,Hotel Spa La Belle Juliette,48.8474426,2.3223783
92 Rue La Boetie 8th arr 75008 Paris France,Rochester Champs Elysees,48.8724945,2.3091549
92 Southampton Row Camden London WC1B 4BH United Kingdom,DoubleTree by Hilton London West End,51.5201065,-0.1221393
93 Rue de Lille 7th arr 75007 Paris France,Hotel d Orsay Esprit de France,48.8603599,2.3230778
95 Rue de Richelieu 2nd arr 75002 Paris France,Mercure Paris Opera Louvre,48.8710895,2.3393461
97 avenue des Ternes 17th arr 75017 Paris France,La Villa des Ternes,48.8803479,2.2858242000000004
97 Cromwell Road Kensington and Chelsea London SW7 4DN United Kingdom,Holiday Inn London Kensington Forum,51.4942305,-0.1851141
97 Great Russell Street Bloomsbury Camden London WC1B 3LB United Kingdom,Radisson Blu Edwardian Kenilworth,51.5179725,-0.12804949999999998
97 rue La Bo tie 8th arr 75008 Paris France,H tel Monna Lisa Champs Elys es,48.874853,2.3245798
97 rue Lauriston 16th arr 75016 Paris France,H tel Waldorf Trocad ro,48.8672694,2.2878666
98 Avenue d Italie 13th arr 75013 Paris France,Best Western Amiral Hotel,48.82523070000001,2.3569005
98 Rue De Clery 2nd arr 75002 Paris France,Hotel Les Th tres,48.8694768,2.3515065
99 Bis Rue De Rome 17th arr 75017 Paris France,Mercure Paris 17 me Saint Lazare Monceau,48.8837472,2.3186342
Albany Street London NW1 3UP United Kingdom,Melia White House Hotel,51.5298597,-0.1444623
Albert Cuypstraat 2 6 Oud Zuid 1072 CT Amsterdam Netherlands,Sir Albert Hotel,52.3544507,4.8875036
Aldwych Westminster Borough London WC2B 4DD United Kingdom,The Waldorf Hilton,51.5131979,-0.1174504
Aletta Jacobslaan 7 Slotervaart 1066 BP Amsterdam Netherlands,Corendon Vitality Hotel Amsterdam,52.3466449,4.8310984
Althanstra e 5 09 Alsergrund 1090 Vienna Austria,Hotel Bellevue Wien,48.2264063,16.3600628
Alzaia Naviglio Grande 8 Navigli 20144 Milan Italy,Maison Borella,45.4521067,9.1758135
Am Heumarkt 35 37 03 Landstra e 1030 Vienna Austria,Hotel Am Konzerthaus Vienna MGallery by Sofitel,48.1996129,16.3773546
Am Hof 2 01 Innere Stadt 1010 Vienna Austria,Park Hyatt Vienna,48.2105243,16.3683592
Am Stadtpark 1 03 Landstra e 1030 Vienna Austria,Hilton Vienna,48.2062268,16.3833767
Ample 1 Pla a Duc de Medinaceli Ciutat Vella 08002 Barcelona Spain,Catalonia Port,41.378751,2.17873
Amstelstraat 17 Amsterdam City Center 1017 DA Amsterdam Netherlands,Hampshire Hotel Rembrandt Square Amsterdam,52.3663466,4.8985764000000005
Angli 60 Sarri St Gervasi 08017 Barcelona Spain,Eurostars Angli,41.4031654,2.1231637
Anna van den Vondelstraat 6 Oud West 1054 GZ Amsterdam Netherlands,Pillows Anna van den Vondel Amsterdam,52.3607413,4.8695315
Annagasse 16 01 Innere Stadt 1010 Vienna Austria,Schlosshotel R mischer Kaiser,48.2040859,16.3725046
Annagasse 7 01 Innere Stadt 1010 Vienna Austria,Hotel Mailberger Hof,48.204183,16.3726664
Apollolaan 101 105 Oud Zuid 1077 AN Amsterdam Netherlands,Best Western Delphi Hotel,52.3504558,4.8770194
Apollolaan 123 125 Oud Zuid 1077 AP Amsterdam Netherlands,Apollofirst Boutique Hotel,52.350396,4.8756404
Apollolaan 138 Oud Zuid 1077 BG Amsterdam Netherlands,Hilton Amsterdam,52.351381,4.8727230000000015
Apollolaan 2 Oud Zuid 1077 BA Amsterdam Netherlands,Apollo Hotel Amsterdam,52.3486098,4.8844292000000005
Arcs 10 Ciutat Vella 08002 Barcelona Spain,Catalonia Catedral,41.3846637,2.1740902
Arend Janszoon Ernststraat 577 Zuideramstel 1082 LD Amsterdam Netherlands,Element Amsterdam,52.3312406,4.877446599999999
Aribau 33 Eixample 08011 Barcelona Spain,Axel Hotel Barcelona Urban Spa Adults Only,41.38734779999999,2.1603987
Aribau 54 Eixample 08011 Barcelona Spain,Cram,41.3880549,2.1599602000000004
Arlandaweg 10 Westpoort 1043 EW Amsterdam Netherlands,Urban Lodge Hotel,52.3856494,4.834443
Aspernbr ckengasse 1 02 Leopoldstadt 1020 Vienna Austria,Novotel Wien City,48.2134246,16.3831309
Auerspergstra e 9 08 Josefstadt 1080 Vienna Austria,The Levante Parliament A Design Hotel,48.2083518,16.354532
Ausi s Marc 34 Eixample 08010 Barcelona Spain,Room Mate Gerard,41.3919114,2.1765438
Avenida Bogatell 64 68 Sant Mart 08005 Barcelona Spain,H10 Marina Barcelona,41.393227,2.1927427
Avenida Diagonal 1 Sant Mart 08019 Barcelona Spain,Barcelona Princess,41.4109715,2.2186535
Avenida Diagonal 201 Sant Mart 08018 Barcelona Spain,Novotel Barcelona City,41.4038774,2.1911894
Avenida Diagonal 205 Sant Mart 08018 Barcelona Spain,The Gates Diagonal Barcelona,41.4036219,2.1902808
Avenida Diagonal 555 Les Corts 08029 Barcelona Spain,AC Hotel Diagonal L Illa a Marriott Lifestyle Hotel,41.3899609,2.135684
Avenida Diagonal 568 Sarri St Gervasi 08021 Barcelona Spain,Wilson Boutique Hotel,41.3944029,2.150194
Avenida Diagonal 570 Sarri St Gervasi 08021 Barcelona Spain,NH Hesperia Barcelona Presidente,41.3941338,2.1489569
Avenida Diagonal 589 591 Les Corts 08014 Barcelona Spain,Hilton Barcelona,41.388682,2.1316368
Avenida Diagonal 596 Sarri St Gervasi 08021 Barcelona Spain,Vincci Mae,41.3933943,2.1461315
Avenida Diagonal 661 671 Les Corts 08028 Barcelona Spain,Fairmont Rey Juan Carlos I,41.3835246,2.1096141
Avenida Litoral 10 Ciutat Vella 08005 Barcelona Spain,Pullman Barcelona Skipper,41.3860183,2.19473
Avenida Marqu s de l Argentera 4 Ciutat Vella 08003 Barcelona Spain,Hotel Ciutadella Barcelona,41.3837583,2.1846933
Avenida Meridiana 151 Sant Mart 08026 Barcelona Spain,Catalonia Atenas,41.4110056,2.1866009
Avenida Paralelo 57 59 Sants Montju c 08004 Barcelona Spain,Tryp Barcelona Apolo Hotel,41.37470310000001,2.1707106
Avenida Pearson 1 3 Les Corts 08034 Barcelona Spain,Sansi Pedralbes,41.39367,2.1115418
Avenida Rius y Taulet 1 3 Sants Montju c 08004 Barcelona Spain,Crowne Plaza Barcelona Fira Center,41.37252460000001,2.1540788
Avenida Roma 2 4 Sants Montju c 08014 Barcelona Spain,Gran Hotel Torre Catalunya,41.37955720000001,2.1425457000000003
Avenida Roma 22 30 Eixample 08015 Barcelona Spain,H10 Itaca,41.3810311,2.1455516
Avenida Roma 23 Eixample 08029 Barcelona Spain,Hotel Abbot,41.3815028,2.1449138
Avenida Roma 93 95 Eixample 08029 Barcelona Spain,Sercotel Amister Art Hotel Barcelona,41.38440720000001,2.1514584
Avenida Sarri 50 Les Corts 08029 Barcelona Spain,Melia Barcelona Sarri ,41.391058,2.141706
Avenida Tibidabo 1 Sarri St Gervasi 08022 Barcelona Spain,ABaC Restaurant Hotel Barcelona GL Monumento,41.4106944,2.136294
Avinguda Catedral 7 Ciutat Vella 08002 Barcelona Spain,Col n Hotel Barcelona,41.38496129999999,2.1756666
Avinguda Icaria 195 Sant Mart 08005 Barcelona Spain,Hotel SB Icaria Barcelona,41.3935591,2.1993915
Avinguda Paral lel 76 78 Ciutat Vella 08001 Barcelona Spain,Hotel Barcelona Universal,41.375237,2.1684058
Avinyo 30 Ciutat Vella 08002 Barcelona Spain,Aparthotel Arai 4 Superior,41.38075170000001,2.1772425
Ballester 77 81 Gr cia 08023 Barcelona Spain,Hotel Ronda Lesseps,41.408641,2.1478143
Balmes 103 105 Eixample 08008 Barcelona Spain,Hotel Barcelona Center,41.3917169,2.1592614
Balmes 117 Eixample 08008 Barcelona Spain,Olivia Balmes Hotel,41.392095,2.158493
Balmes 142 146 Eixample 08008 Barcelona Spain,Catalonia Diagonal Centro,41.39386320000001,2.1568039
Basil Street Knightsbridge Kensington and Chelsea London SW3 1AT United Kingdom,The Capital,51.4997486,-0.1615242
Baumgasse 83 03 Landstra e 1030 Vienna Austria,Vienna Sporthotel,48.191373,16.4082294
Belgrove Street Camden London WC1H 8AB United Kingdom,Megaro Hotel,51.5294411,-0.12337449999999997
Bellamyplein 47 Oud West 1053 AT Amsterdam Netherlands,Hotel De Hallen,52.3677568,4.868217400000002
Beltran i R zpide 7 9 Les Corts 08034 Barcelona Spain,AC Hotel Victoria Suites a Marriott Lifestyle Hotel,41.3893478,2.1209755
Bergara 11 Eixample 08002 Barcelona Spain,Catalonia Plaza Catalunya,41.3865289,2.1682919
Bergara 2 4 Eixample 08002 Barcelona Spain,Hotel Regina,41.3858891,2.1681652
Bergara 8 Eixample 08002 Barcelona Spain,Hotel Pulitzer,41.386136,2.1682914
Berruguete 126 Horta Guinard 08035 Barcelona Spain,Hotel Alimara,41.4337561,2.147327
Bloomsbury Way Camden London WC1A 2SD United Kingdom,Thistle Holborn The Kingsley,51.5179659,-0.1234343
Boltzmanngasse 8 09 Alsergrund 1090 Vienna Austria,Hotel Boltzmann,48.2216779,16.356711100000002
Bond Street Mayfair Westminster Borough London W1S 2YF United Kingdom,The Westbury A Luxury Collection Hotel Mayfair London,51.51444179999999,-0.146432
Boquer a 10 Ciutat Vella 08002 Barcelona Spain,Petit Palace Boqueria Garden,41.3812223,2.1739622000000005
Boria 24 26 Ciutat Vella 08003 Barcelona Spain,Mercer House B ria BCN,41.3846844,2.1791065
Breite Gasse 9 07 Neubau 1070 Vienna Austria,Hotel ViennArt am Museumsquartier,48.2035677,16.356445
Bridges Court Road Battersea London SW11 3BE United Kingdom,Crowne Plaza London Battersea,51.4689559,-0.1787256
Bryanston Street Marble Arch Westminster Borough London W1H 7EH United Kingdom,Amba Hotel Marble Arch,51.51440039999999,-0.1565506
Buckingham Gate Westminster Borough London SW1E 6AF United Kingdom,Taj 51 Buckingham Gate Suites and Residences,51.498861,-0.13748970000000002
Burggasse 2 07 Neubau 1070 Vienna Austria,Hotel Sans Souci Wien,48.204576,16.3563661
C rcega 368 Eixample 08037 Barcelona Spain,Catalonia La Pedrera,41.3986093,2.1625037
C rsega 289 Eixample 08008 Barcelona Spain,Ohla Eixample,41.39445739999999,2.1564353
Cadogan Place Kensington and Chelsea London SW1X 9PY United Kingdom,Jumeirah Carlton Tower,51.4973568,-0.15767279999999995
Calabria 115 117 Eixample 08015 Barcelona Spain,Hotel Villa Emilia,41.3802469,2.1541149
Calabria 90 92 Eixample 08015 Barcelona Spain,TWO Hotel Barcelona by Axel 4 Sup Adults Only,41.37913,2.1561186
Calle K s n Entrada principal Mercabarna Sants Montju c 08040 Barcelona Spain,Hotel Best Western PLUS Alfa Aeropuerto,41.3283758,2.1129638
Calvet 40 42 Sarri St Gervasi 08021 Barcelona Spain,AC Hotel Irla a Marriott Lifestyle Hotel,41.3948175,2.1434702000000003
Capellans 4 Ciutat Vella 08002 Barcelona Spain,Hotel Barcelona Catedral,41.384829,2.1751277
Capitan Arenas 20 Les Corts 08034 Barcelona Spain,Arenas Atiram Hotels,41.3904305,2.1262314
Carburton Street Westminster Borough London W1W 5EE United Kingdom,Holiday Inn London Regent s Park,51.5222472,-0.14261279999999998
Cardenal Reig 11 Les Corts 08028 Barcelona Spain,Senator Barcelona Spa Hotel,41.3777977,2.1135971
Cardington Street Euston Camden London NW1 2LP United Kingdom,Thistle Euston,51.5291423,-0.13727820000000002
Carlos Place Westminster Borough London W1K 2AL United Kingdom,The Connaught,51.5101556,-0.1496314
Carrer de Arag 271 Eixample 08007 Barcelona Spain,Room Mate Anna,41.39293660000001,2.1653954
Carretera Vallvidrera Tibidabo 83 93 Horta Guinard 08035 Barcelona Spain,Gran Hotel La Florida,41.4253332,2.1211028
Caspe 103 Eixample 08013 Barcelona Spain,Ayre Hotel Caspe,41.3961021,2.1794688
Catherine Grove Greenwich Greenwich London SE10 8BB United Kingdom,Doubletree By Hilton London Greenwich,51.474469,-0.019428
Chassestraat 62 64 De Baarsjes 1057 JJ Amsterdam Netherlands,Chasse Hotel,52.3696719,4.8614475
Chelsea Harbour Hammersmith and Fulham London SW10 0XG United Kingdom,The Chelsea Harbour Hotel,51.4756558,-0.1813888
Coburgbastei 4 01 Innere Stadt 1010 Vienna Austria,Palais Coburg Residenz,48.2058584,16.3766545
Comte Borrell 208 Eixample 08029 Barcelona Spain,Zenit Borrell,41.3859873,2.1514021
Comte d Urgell 232 Eixample 08036 Barcelona Spain,U232 Hotel,41.38952370000001,2.1490307
Consell de Cent 498 500 Eixample 08013 Barcelona Spain,Eurostars Monumental,41.4006653,2.1787089
Consell de Cent 51 53 Sants Montju c 08014 Barcelona Spain,Pestana Arena Barcelona,41.376801,2.1460443
Coopers Row City of London London EC3N 2BQ United Kingdom,Grange City Hotel,51.5110114,-0.07712510000000003
Coram Street Camden London WC1N 1HT United Kingdom,Holiday Inn London Bloomsbury,51.5241248,-0.1258066
Corcega 255 Eixample 08036 Barcelona Spain,The Mirror Barcelona,41.3930406,2.1545393
Corso Buenos Aires 3 Milan City Center 20124 Milan Italy,Worldhotel Cristoforo Colombo,45.4758842,9.205791
Corso Buenos Aires 33 Central Station 20124 Milan Italy,IH Hotels Milano Puccini,45.4794406,9.2096756
Corso Buenos Aires 42 5 Central Station 20124 Milan Italy,Best Western Hotel City,45.485887700000006,9.204282699999998
Corso Concordia 1 Milan City Center 20129 Milan Italy,Ch teau Monfort Relais Ch teaux,45.4682358,9.2073799
Corso Di Porta Nuova 1 Milan City Center 20121 Milan Italy,Palazzo Parigi Hotel Grand Spa Milano,45.473348,9.1910733
Corso di Porta Romana 48 Milan City Center 20122 Milan Italy,Hotel Lloyd,45.4580781,9.1924205
Corso di Porta Romana 64 Milan City Center 20122 Milan Italy,Hotel Romana Residence,45.4572218,9.1937008
Corso di Porta Vigentina 46 Milan City Center 20122 Milan Italy,Hotel Crivi s,45.4529643,9.1962217
Corso Europa 9 Milan City Center 20122 Milan Italy,Hotel Galileo,45.4642651,9.1960569
Corso Garibaldi 84 Milan City Center 20121 Milan Italy,Carlyle Brera Hotel,45.47699229999999,9.1844899
Corso Giacomo Matteotti 4 6 Milan City Center 20121 Milan Italy,Boscolo Milano Autograph Collection,45.46676,9.194293
Corso Magenta 19 Milan City Center 20123 Milan Italy,Mokinba Hotels King,45.4656023,9.1778675
Corso Sempione 69 Fiera Milano City 20149 Milan Italy,Qualys Hotel Nasco,45.4848809,9.1596461
Corso Sempione 91 Fiera Milano City 20149 Milan Italy,Enterprise Hotel Design Boutique,45.4867005,9.1575137
Crist bal de Moura 138 Sant Mart 08019 Barcelona Spain,Tryp Barcelona Condal Mar Hotel,41.4126508,2.2090895
D u i Mata 66 99 Les Corts 08029 Barcelona Spain,NH Collection Barcelona Constanza,41.3885274,2.1360471000000003
Dam 9 Amsterdam City Center 1012 JS Amsterdam Netherlands,NH Collection Amsterdam Grand Hotel Krasnapolsky,52.3727067,4.894365799999999
Damrak 1 5 Amsterdam City Center 1012 LG Amsterdam Netherlands,Park Plaza Victoria Amsterdam,52.377278,4.897818
Damrak 93 94 Amsterdam City Center 1012 LP Amsterdam Netherlands,Hotel Amsterdam De Roode Leeuw,52.373704,4.893591000000002
Damrak 96 Amsterdam City Center 1012 LP Amsterdam Netherlands,Swiss tel Amsterdam,52.3735266,4.8933041
Daungasse 1 6 7 08 Josefstadt 1080 Vienna Austria,City Rooms,48.2133296,16.347139900000002
De Boelelaan 2 Zuideramstel 1083 HJ Amsterdam Netherlands,Holiday Inn Amsterdam,52.3351951,4.8885354
De Passage 90 Noord Holland Zuidoost 1101 AX Amsterdam Netherlands,Jaz Amsterdam,52.314371,4.938806400000002
Delflandlaan 15 Slotervaart 1062 EA Amsterdam Netherlands,Best Western Premier Hotel Couture,52.351113700000006,4.8411629000000005
Dels Lledo 7 Ciutat Vella 08003 Barcelona Spain,Mercer Hotel Barcelona,41.3827,2.1791999
Desider Friedmann Platz 2 01 Innere Stadt 1010 Vienna Austria,Mercure Vienna First,48.21145670000001,16.373867699999998
Diagonal Pere IV 272 Sant Mart 08005 Barcelona Spain,Melia Barcelona Sky 4 Sup,41.4061636,2.2008956000000004
Dijsselhofplantsoen 7 Oud Zuid 1077 BJ Amsterdam Netherlands,Bilderberg Garden Hotel,52.351144700000006,4.8740764
Diputaci 195 Eixample 08011 Barcelona Spain,Ako Suites Hotel,41.3861153,2.1611899
Diputaci 257 Eixample 08007 Barcelona Spain,Eurostars Cristal Palace,41.3897945,2.1660575
Diputaci 262 264 Eixample 08007 Barcelona Spain,HCC St Moritz,41.39084860000001,2.1680745
Diputacion 250 Eixample 08007 Barcelona Spain,Petit Palace Museum,41.3888014,2.1653738
Distelkade 21 Amsterdam Noord 1031 XP Amsterdam Netherlands,NH Amsterdam Noord,52.3923684,4.9110442
Doctor Carulla 25 Sarri St Gervasi 08017 Barcelona Spain,Primero Primera,41.4002812,2.1297427000000004
Doctor Trueta 164 Sant Mart 08005 Barcelona Spain,Hotel 4 Barcelona,41.39595870000001,2.2008981
Donau City Stra e 7 22 Donaustadt 1220 Vienna Austria,Melia Vienna,48.231911,16.4129493
Dorotheergasse 3 01 Innere Stadt 1010 Vienna Austria,Graben Hotel,48.2078955,16.3701084
Duc De Medinaceli 8 Ciutat Vella 08002 Barcelona Spain,Medinaceli,41.3781685,2.1786627
Eerste Constantijn Huygensstraat 10A Oud West 1054 BR Amsterdam Netherlands,Grand Hotel Downtown,52.36513,4.8729422
Eerste Constantijn huygensstraat 26G Oud West 1054 BR Amsterdam Netherlands,Amadi Park Hotel,52.364962,4.873495
Elisabets 11 Ciutat Vella 08001 Barcelona Spain,Hotel Casa Camper,41.3832414,2.1685298
Empire Way Wembley Brent London HA9 8DS United Kingdom,Holiday Inn London Wembley,51.55909550000001,-0.284704
Engerthstra e 173 175 02 Leopoldstadt 1020 Vienna Austria,Austria Trend Hotel Lassalle Wien,48.2273013,16.4001791
Enric Granados 62 64 Eixample 08008 Barcelona Spain,H10 Art Gallery 4 Sup,41.392018,2.157066
Enrique Granados 83 Eixample 08008 Barcelona Spain,Hotel Granados 83,41.391843,2.156844
Epping Forest 30 Oak Hill London IG8 9NY United Kingdom,Best Western PLUS Epping Forest,51.603207,0.010607
Espronceda 6 Sant Mart 08005 Barcelona Spain,NH Hesperia Barcelona del Mar,41.4014399,2.2100745
Europaboulevard 10 Zuideramstel 1083 AD Amsterdam Netherlands,Novotel Amsterdam City,52.333803,4.8884708
Euston Road Camden London NW1 2AR United Kingdom,St Pancras Renaissance Hotel London,51.5267769,-0.1324905
Excel 2 Festoon Way Royal Victoria Dock Newham London E16 1RH United Kingdom,DoubleTree By Hilton London Excel,51.50737700000001,0.038657
F hrichgasse 10 01 Innere Stadt 1010 Vienna Austria,The Guesthouse Vienna,48.2051299,16.369035999999998
Favoritenstra e 12 04 Wieden 1040 Vienna Austria,Hotel Johann Strauss,48.1949694,16.3692624
Felberstra e 4 15 Rudolfsheim F nfhaus 1150 Vienna Austria,Hotel Mercure Wien Westbahnhof,48.19835429999999,16.3375246
Ferdinand Bolstraat 194 Oud Zuid 1072 LW Amsterdam Netherlands,Savoy Hotel Amsterdam,52.34974310000001,4.8911908
Ferdinand Bolstraat 333 Oud Zuid 1072 LH Amsterdam Netherlands,Hotel Okura Amsterdam,52.3487635,4.8938829
Filmteichstra e 5 10 Favoriten 1100 Vienna Austria,Hotel Eitlj rg,48.1513676,16.4064709
Fizeaustraat 2 Oost 1097 SC Amsterdam Netherlands,Hotel V Fizeaustraat,52.3451511,4.9252372000000015
Fleischmarkt 1a 01 Innere Stadt 1010 Vienna Austria,Mercure Wien Zentrum,48.21140870000001,16.374646900000002
Frankenberggasse 10 04 Wieden 1040 Vienna Austria,Best Western Premier Kaiserhof Wien,48.1975497,16.3686397
Freytaggasse 25 27 21 Floridsdorf 1210 Vienna Austria,FourSide Hotel Suites Vienna,48.2565936,16.4031426
Fulham Road Stamford Bridge Hammersmith and Fulham London SW6 1HS United Kingdom,Millennium Copthorne Hotels at Chelsea Football Club,51.481663,-0.1909565
Galleria Del Corso 3 Milan City Center 20122 Milan Italy,IH Hotels Milano Ambasciatori,45.4644348,9.1952727
George Gershwinlaan 101 Zuideramstel 1082 MT Amsterdam Netherlands,Crowne Plaza Amsterdam South,52.3357326,4.8743947
George Street Westminster Borough London W1H 5BJ United Kingdom,Durrants Hotel,51.5179386,-0.1529794
Getreidemarkt 5 06 Mariahilf 1060 Vienna Austria,Mercure Secession Wien,48.200561,16.364706299999998
Girona 158 Eixample 08037 Barcelona Spain,Hotel Well and Come,41.3991773,2.1656134
Gran V a de les Corts Catalanes 322 Sants Montju c 08004 Barcelona Spain,Ayre Hotel Gran V a,41.3732462,2.1474351
